[
  {
    "Title": "Athens", 
    "lat": "37.9842", 
    "lng": "23.7281", 
    "country": "Greece", 
    "iso2": "GR", 
    "admin_name": "Attikí", 
    "capital": "primary", 
    "population": "664046", 
    "population_proper": "664046"
  }, 
  {
    "Title": "Thessaloníki", 
    "lat": "40.6403", 
    "lng": "22.9356", 
    "country": "Greece", 
    "iso2": "GR", 
    "admin_name": "Kentrikí Makedonía", 
    "capital": "admin", 
    "population": "315196", 
    "population_proper": "315196"
  }, 
  {
    "Title": "Pátra", 
    "lat": "38.2500", 
    "lng": "21.7333", 
    "country": "Greece", 
    "iso2": "GR", 
    "admin_name": "Dytikí Elláda", 
    "capital": "admin", 
    "population": "167446", 
    "population_proper": "167446"
  }, 
  {
    "Title": "Piraeus", 
    "lat": "37.9430", 
    "lng": "23.6469", 
    "country": "Greece", 
    "iso2": "GR", 
    "admin_name": "Attikí", 
    "capital": "minor", 
    "population": "163688", 
    "population_proper": "163688"
  }, 
  {
    "Title": "Lárisa", 
    "lat": "39.6369", 
    "lng": "22.4176", 
    "country": "Greece", 
    "iso2": "GR", 
    "admin_name": "Thessalía", 
    "capital": "admin", 
    "population": "144651", 
    "population_proper": "144651"
  }, 
  {
    "Title": "Irákleio", 
    "lat": "35.3403", 
    "lng": "25.1344", 
    "country": "Greece", 
    "iso2": "GR", 
    "admin_name": "Kríti", 
    "capital": "admin", 
    "population": "140730", 
    "population_proper": "140730"
  }, 
  {
    "Title": "Peristéri", 
    "lat": "38.0167", 
    "lng": "23.6833", 
    "country": "Greece", 
    "iso2": "GR", 
    "admin_name": "Attikí", 
    "capital": "minor", 
    "population": "139981", 
    "population_proper": "139981"
  }, 
  {
    "Title": "Kallithéa", 
    "lat": "37.9500", 
    "lng": "23.7000", 
    "country": "Greece", 
    "iso2": "GR", 
    "admin_name": "Attikí", 
    "capital": "minor", 
    "population": "100641", 
    "population_proper": "100641"
  }, 
  {
    "Title": "Níkaia", 
    "lat": "37.9667", 
    "lng": "23.6333", 
    "country": "Greece", 
    "iso2": "GR", 
    "admin_name": "Attikí", 
    "capital": "minor", 
    "population": "89380", 
    "population_proper": "89380"
  }, 
  {
    "Title": "Glyfáda", 
    "lat": "37.8800", 
    "lng": "23.7533", 
    "country": "Greece", 
    "iso2": "GR", 
    "admin_name": "Attikí", 
    "capital": "minor", 
    "population": "87305", 
    "population_proper": "87305"
  }, 
  {
    "Title": "Vólos", 
    "lat": "39.3611", 
    "lng": "22.9425", 
    "country": "Greece", 
    "iso2": "GR", 
    "admin_name": "Thessalía", 
    "capital": "minor", 
    "population": "86046", 
    "population_proper": "86046"
  }, 
  {
    "Title": "Chaniá", 
    "lat": "35.5173", 
    "lng": "24.0195", 
    "country": "Greece", 
    "iso2": "GR", 
    "admin_name": "Kríti", 
    "capital": "minor", 
    "population": "78728", 
    "population_proper": "54565"
  }, 
  {
    "Title": "Chalándri", 
    "lat": "38.0167", 
    "lng": "23.8000", 
    "country": "Greece", 
    "iso2": "GR", 
    "admin_name": "Attikí", 
    "capital": "minor", 
    "population": "74192", 
    "population_proper": "74192"
  }, 
  {
    "Title": "Kalamáta", 
    "lat": "37.0389", 
    "lng": "22.1142", 
    "country": "Greece", 
    "iso2": "GR", 
    "admin_name": "Peloponnísos", 
    "capital": "minor", 
    "population": "71823", 
    "population_proper": "51108"
  }, 
  {
    "Title": "Néa Ionía", 
    "lat": "38.0333", 
    "lng": "23.7500", 
    "country": "Greece", 
    "iso2": "GR", 
    "admin_name": "Attikí", 
    "capital": "minor", 
    "population": "67134", 
    "population_proper": "67134"
  }, 
  {
    "Title": "Ioánnina", 
    "lat": "39.6636", 
    "lng": "20.8522", 
    "country": "Greece", 
    "iso2": "GR", 
    "admin_name": "Ípeiros", 
    "capital": "admin", 
    "population": "65574", 
    "population_proper": "65574"
  }, 
  {
    "Title": "Palaió Fáliro", 
    "lat": "37.9320", 
    "lng": "23.7003", 
    "country": "Greece", 
    "iso2": "GR", 
    "admin_name": "Attikí", 
    "capital": "minor", 
    "population": "64021", 
    "population_proper": "64021"
  }, 
  {
    "Title": "Tríkala", 
    "lat": "39.5550", 
    "lng": "21.7683", 
    "country": "Greece", 
    "iso2": "GR", 
    "admin_name": "Thessalía", 
    "capital": "minor", 
    "population": "61653", 
    "population_proper": "61653"
  }, 
  {
    "Title": "Výronas", 
    "lat": "37.9556", 
    "lng": "23.7600", 
    "country": "Greece", 
    "iso2": "GR", 
    "admin_name": "Attikí", 
    "capital": "minor", 
    "population": "61308", 
    "population_proper": "61308"
  }, 
  {
    "Title": "Agía Paraskeví", 
    "lat": "38.0053", 
    "lng": "23.8208", 
    "country": "Greece", 
    "iso2": "GR", 
    "admin_name": "Attikí", 
    "capital": "minor", 
    "population": "59704", 
    "population_proper": "59704"
  }, 
  {
    "Title": "Galátsi", 
    "lat": "38.0167", 
    "lng": "23.7500", 
    "country": "Greece", 
    "iso2": "GR", 
    "admin_name": "Attikí", 
    "capital": "minor", 
    "population": "59345", 
    "population_proper": "59345"
  }, 
  {
    "Title": "Kavála", 
    "lat": "40.9350", 
    "lng": "24.4150", 
    "country": "Greece", 
    "iso2": "GR", 
    "admin_name": "Anatolikí Makedonía kai Thráki", 
    "capital": "minor", 
    "population": "59240", 
    "population_proper": "52950"
  }, 
  {
    "Title": "Chalkída", 
    "lat": "38.4625", 
    "lng": "23.5950", 
    "country": "Greece", 
    "iso2": "GR", 
    "admin_name": "Stereá Elláda", 
    "capital": "minor", 
    "population": "59125", 
    "population_proper": "59125"
  }, 
  {
    "Title": "Sérres", 
    "lat": "41.0833", 
    "lng": "23.5500", 
    "country": "Greece", 
    "iso2": "GR", 
    "admin_name": "Kentrikí Makedonía", 
    "capital": "minor", 
    "population": "58287", 
    "population_proper": "58287"
  }, 
  {
    "Title": "Alexandroúpoli", 
    "lat": "40.8500", 
    "lng": "25.8667", 
    "country": "Greece", 
    "iso2": "GR", 
    "admin_name": "Anatolikí Makedonía kai Thráki", 
    "capital": "minor", 
    "population": "57812", 
    "population_proper": "57812"
  }, 
  {
    "Title": "Ródos", 
    "lat": "36.4412", 
    "lng": "28.2225", 
    "country": "Greece", 
    "iso2": "GR", 
    "admin_name": "Notío Aigaío", 
    "capital": "minor", 
    "population": "56969", 
    "population_proper": "56128"
  }, 
  {
    "Title": "Xánthi", 
    "lat": "41.1333", 
    "lng": "24.8833", 
    "country": "Greece", 
    "iso2": "GR", 
    "admin_name": "Anatolikí Makedonía kai Thráki", 
    "capital": "minor", 
    "population": "56122", 
    "population_proper": "56122"
  }, 
  {
    "Title": "Kateríni", 
    "lat": "40.2667", 
    "lng": "22.5000", 
    "country": "Greece", 
    "iso2": "GR", 
    "admin_name": "Kentrikí Makedonía", 
    "capital": "minor", 
    "population": "55997", 
    "population_proper": "55997"
  }, 
  {
    "Title": "Lamía", 
    "lat": "38.8972", 
    "lng": "22.4311", 
    "country": "Greece", 
    "iso2": "GR", 
    "admin_name": "Stereá Elláda", 
    "capital": "admin", 
    "population": "52006", 
    "population_proper": "52006"
  }, 
  {
    "Title": "Komotiní", 
    "lat": "41.1167", 
    "lng": "25.4000", 
    "country": "Greece", 
    "iso2": "GR", 
    "admin_name": "Anatolikí Makedonía kai Thráki", 
    "capital": "admin", 
    "population": "50990", 
    "population_proper": "50990"
  }, 
  {
    "Title": "Agrínio", 
    "lat": "38.6167", 
    "lng": "21.4000", 
    "country": "Greece", 
    "iso2": "GR", 
    "admin_name": "Dytikí Elláda", 
    "capital": "minor", 
    "population": "46899", 
    "population_proper": "46899"
  }, 
  {
    "Title": "Chaïdári", 
    "lat": "38.0167", 
    "lng": "23.6500", 
    "country": "Greece", 
    "iso2": "GR", 
    "admin_name": "Attikí", 
    "capital": "minor", 
    "population": "45642", 
    "population_proper": "45642"
  }, 
  {
    "Title": "Dráma", 
    "lat": "41.1514", 
    "lng": "24.1392", 
    "country": "Greece", 
    "iso2": "GR", 
    "admin_name": "Anatolikí Makedonía kai Thráki", 
    "capital": "minor", 
    "population": "44823", 
    "population_proper": "44823"
  }, 
  {
    "Title": "Véroia", 
    "lat": "40.5203", 
    "lng": "22.2019", 
    "country": "Greece", 
    "iso2": "GR", 
    "admin_name": "Kentrikí Makedonía", 
    "capital": "minor", 
    "population": "43158", 
    "population_proper": "43158"
  }, 
  {
    "Title": "Kozáni", 
    "lat": "40.3007", 
    "lng": "21.7890", 
    "country": "Greece", 
    "iso2": "GR", 
    "admin_name": "Dytikí Makedonía", 
    "capital": "admin", 
    "population": "41066", 
    "population_proper": "41066"
  }, 
  {
    "Title": "Kardítsa", 
    "lat": "39.3647", 
    "lng": "21.9219", 
    "country": "Greece", 
    "iso2": "GR", 
    "admin_name": "Thessalía", 
    "capital": "minor", 
    "population": "38554", 
    "population_proper": "38554"
  }, 
  {
    "Title": "Réthymno", 
    "lat": "35.3689", 
    "lng": "24.4739", 
    "country": "Greece", 
    "iso2": "GR", 
    "admin_name": "Kríti", 
    "capital": "minor", 
    "population": "32468", 
    "population_proper": "32468"
  }, 
  {
    "Title": "Trípoli", 
    "lat": "37.5083", 
    "lng": "22.3750", 
    "country": "Greece", 
    "iso2": "GR", 
    "admin_name": "Peloponnísos", 
    "capital": "admin", 
    "population": "30866", 
    "population_proper": "30866"
  }, 
  {
    "Title": "Vrilíssia", 
    "lat": "38.0391", 
    "lng": "23.8378", 
    "country": "Greece", 
    "iso2": "GR", 
    "admin_name": "Attikí", 
    "capital": "minor", 
    "population": "30741", 
    "population_proper": "30741"
  }, 
  {
    "Title": "Kórinthos", 
    "lat": "37.9333", 
    "lng": "22.9333", 
    "country": "Greece", 
    "iso2": "GR", 
    "admin_name": "Peloponnísos", 
    "capital": "minor", 
    "population": "30176", 
    "population_proper": "30176"
  }, 
  {
    "Title": "Giannitsá", 
    "lat": "40.7962", 
    "lng": "22.4145", 
    "country": "Greece", 
    "iso2": "GR", 
    "admin_name": "Kentrikí Makedonía", 
    "capital": "minor", 
    "population": "29789", 
    "population_proper": "29789"
  }, 
  {
    "Title": "Mytilíni", 
    "lat": "39.1114", 
    "lng": "26.5621", 
    "country": "Greece", 
    "iso2": "GR", 
    "admin_name": "Voreío Aigaío", 
    "capital": "admin", 
    "population": "29328", 
    "population_proper": "28322"
  }, 
  {
    "Title": "Chíos", 
    "lat": "38.3725", 
    "lng": "26.1375", 
    "country": "Greece", 
    "iso2": "GR", 
    "admin_name": "Voreío Aigaío", 
    "capital": "minor", 
    "population": "26850", 
    "population_proper": "26850"
  }, 
  {
    "Title": "Kaisarianí", 
    "lat": "37.9633", 
    "lng": "23.7653", 
    "country": "Greece", 
    "iso2": "GR", 
    "admin_name": "Attikí", 
    "capital": "minor", 
    "population": "26370", 
    "population_proper": "26370"
  }, 
  {
    "Title": "Néa Filadélfeia", 
    "lat": "38.0350", 
    "lng": "23.7381", 
    "country": "Greece", 
    "iso2": "GR", 
    "admin_name": "Attikí", 
    "capital": "minor", 
    "population": "25734", 
    "population_proper": "25734"
  }, 
  {
    "Title": "Salamína", 
    "lat": "37.9333", 
    "lng": "23.5000", 
    "country": "Greece", 
    "iso2": "GR", 
    "admin_name": "Attikí", 
    "capital": "minor", 
    "population": "25370", 
    "population_proper": "25370"
  }, 
  {
    "Title": "Elefsína", 
    "lat": "38.0414", 
    "lng": "23.5453", 
    "country": "Greece", 
    "iso2": "GR", 
    "admin_name": "Attikí", 
    "capital": "minor", 
    "population": "24910", 
    "population_proper": "24910"
  }, 
  {
    "Title": "Kérkyra", 
    "lat": "39.6239", 
    "lng": "19.9214", 
    "country": "Greece", 
    "iso2": "GR", 
    "admin_name": "Ionía Nísia", 
    "capital": "admin", 
    "population": "24838", 
    "population_proper": "24838"
  }, 
  {
    "Title": "Pýrgos", 
    "lat": "37.6667", 
    "lng": "21.4333", 
    "country": "Greece", 
    "iso2": "GR", 
    "admin_name": "Dytikí Elláda", 
    "capital": "minor", 
    "population": "24359", 
    "population_proper": "24359"
  }, 
  {
    "Title": "Mégara", 
    "lat": "38.0000", 
    "lng": "23.3333", 
    "country": "Greece", 
    "iso2": "GR", 
    "admin_name": "Attikí", 
    "capital": "minor", 
    "population": "23456", 
    "population_proper": "23456"
  }, 
  {
    "Title": "Kilkís", 
    "lat": "40.9954", 
    "lng": "22.8765", 
    "country": "Greece", 
    "iso2": "GR", 
    "admin_name": "Kentrikí Makedonía", 
    "capital": "minor", 
    "population": "22914", 
    "population_proper": "22914"
  }, 
  {
    "Title": "Thebes", 
    "lat": "38.3242", 
    "lng": "23.3236", 
    "country": "Greece", 
    "iso2": "GR", 
    "admin_name": "Stereá Elláda", 
    "capital": "minor", 
    "population": "22883", 
    "population_proper": "22883"
  }, 
  {
    "Title": "Lefkáda", 
    "lat": "38.7178", 
    "lng": "20.6439", 
    "country": "Greece", 
    "iso2": "GR", 
    "admin_name": "Ionía Nísia", 
    "capital": "minor", 
    "population": "22652", 
    "population_proper": "22652"
  }, 
  {
    "Title": "Áno Sýros", 
    "lat": "37.4500", 
    "lng": "24.9000", 
    "country": "Greece", 
    "iso2": "GR", 
    "admin_name": "Notío Aigaío", 
    "capital": "minor", 
    "population": "21507", 
    "population_proper": "21507"
  }, 
  {
    "Title": "Péfki", 
    "lat": "38.0667", 
    "lng": "23.8000", 
    "country": "Greece", 
    "iso2": "GR", 
    "admin_name": "Attikí", 
    "capital": "minor", 
    "population": "21415", 
    "population_proper": "21415"
  }, 
  {
    "Title": "Livadeiá", 
    "lat": "38.4361", 
    "lng": "22.8750", 
    "country": "Greece", 
    "iso2": "GR", 
    "admin_name": "Stereá Elláda", 
    "capital": "minor", 
    "population": "21379", 
    "population_proper": "21379"
  }, 
  {
    "Title": "Kos", 
    "lat": "36.8153", 
    "lng": "27.1103", 
    "country": "Greece", 
    "iso2": "GR", 
    "admin_name": "Notío Aigaío", 
    "capital": "minor", 
    "population": "19244", 
    "population_proper": "18691"
  }, 
  {
    "Title": "Préveza", 
    "lat": "38.9500", 
    "lng": "20.7500", 
    "country": "Greece", 
    "iso2": "GR", 
    "admin_name": "Ípeiros", 
    "capital": "minor", 
    "population": "19042", 
    "population_proper": "19042"
  }, 
  {
    "Title": "Orestiáda", 
    "lat": "41.5000", 
    "lng": "26.5333", 
    "country": "Greece", 
    "iso2": "GR", 
    "admin_name": "Anatolikí Makedonía kai Thráki", 
    "capital": "minor", 
    "population": "18426", 
    "population_proper": "18426"
  }, 
  {
    "Title": "Spárti", 
    "lat": "37.0819", 
    "lng": "22.4236", 
    "country": "Greece", 
    "iso2": "GR", 
    "admin_name": "Peloponnísos", 
    "capital": "minor", 
    "population": "16187", 
    "population_proper": "15497"
  }, 
  {
    "Title": "Thérmi", 
    "lat": "40.5472", 
    "lng": "23.0197", 
    "country": "Greece", 
    "iso2": "GR", 
    "admin_name": "Kentrikí Makedonía", 
    "capital": "minor", 
    "population": "16004", 
    "population_proper": "16004"
  }, 
  {
    "Title": "Alexándreia", 
    "lat": "40.6283", 
    "lng": "22.4454", 
    "country": "Greece", 
    "iso2": "GR", 
    "admin_name": "Kentrikí Makedonía", 
    "capital": "minor", 
    "population": "14821", 
    "population_proper": "14821"
  }, 
  {
    "Title": "Paianía", 
    "lat": "37.9500", 
    "lng": "23.8500", 
    "country": "Greece", 
    "iso2": "GR", 
    "admin_name": "Attikí", 
    "capital": "minor", 
    "population": "14595", 
    "population_proper": "14595"
  }, 
  {
    "Title": "Náfplio", 
    "lat": "37.5667", 
    "lng": "22.8000", 
    "country": "Greece", 
    "iso2": "GR", 
    "admin_name": "Peloponnísos", 
    "capital": "minor", 
    "population": "14203", 
    "population_proper": "14203"
  }, 
  {
    "Title": "Náfpaktos", 
    "lat": "38.3917", 
    "lng": "21.8275", 
    "country": "Greece", 
    "iso2": "GR", 
    "admin_name": "Dytikí Elláda", 
    "capital": "minor", 
    "population": "13415", 
    "population_proper": "13415"
  }, 
  {
    "Title": "Kastoriá", 
    "lat": "40.5181", 
    "lng": "21.2688", 
    "country": "Greece", 
    "iso2": "GR", 
    "admin_name": "Dytikí Makedonía", 
    "capital": "minor", 
    "population": "13387", 
    "population_proper": "13387"
  }, 
  {
    "Title": "Néa Alikarnassós", 
    "lat": "35.3286", 
    "lng": "25.1644", 
    "country": "Greece", 
    "iso2": "GR", 
    "admin_name": "Kríti", 
    "capital": "", 
    "population": "12925", 
    "population_proper": "12925"
  }, 
  {
    "Title": "Kálymnos", 
    "lat": "36.9512", 
    "lng": "26.9832", 
    "country": "Greece", 
    "iso2": "GR", 
    "admin_name": "Notío Aigaío", 
    "capital": "minor", 
    "population": "12324", 
    "population_proper": "12324"
  }, 
  {
    "Title": "Ermoúpoli", 
    "lat": "37.4504", 
    "lng": "24.9333", 
    "country": "Greece", 
    "iso2": "GR", 
    "admin_name": "Notío Aigaío", 
    "capital": "admin", 
    "population": "12260", 
    "population_proper": "12260"
  }, 
  {
    "Title": "Týrnavos", 
    "lat": "39.7353", 
    "lng": "22.2869", 
    "country": "Greece", 
    "iso2": "GR", 
    "admin_name": "Thessalía", 
    "capital": "minor", 
    "population": "11069", 
    "population_proper": "11069"
  }, 
  {
    "Title": "Diavatá", 
    "lat": "40.6883", 
    "lng": "22.8583", 
    "country": "Greece", 
    "iso2": "GR", 
    "admin_name": "Kentrikí Makedonía", 
    "capital": "", 
    "population": "9890", 
    "population_proper": "9890"
  }, 
  {
    "Title": "Kiáto", 
    "lat": "38.0117", 
    "lng": "22.7467", 
    "country": "Greece", 
    "iso2": "GR", 
    "admin_name": "Peloponnísos", 
    "capital": "minor", 
    "population": "9812", 
    "population_proper": "9812"
  }, 
  {
    "Title": "Anatolí", 
    "lat": "39.6386", 
    "lng": "20.8661", 
    "country": "Greece", 
    "iso2": "GR", 
    "admin_name": "Ípeiros", 
    "capital": "", 
    "population": "9798", 
    "population_proper": "9798"
  }, 
  {
    "Title": "Argostóli", 
    "lat": "38.1739", 
    "lng": "20.4883", 
    "country": "Greece", 
    "iso2": "GR", 
    "admin_name": "Ionía Nísia", 
    "capital": "minor", 
    "population": "9748", 
    "population_proper": "9748"
  }, 
  {
    "Title": "Lykóvrysi", 
    "lat": "38.0667", 
    "lng": "23.7833", 
    "country": "Greece", 
    "iso2": "GR", 
    "admin_name": "Attikí", 
    "capital": "", 
    "population": "9738", 
    "population_proper": "9738"
  }, 
  {
    "Title": "Pórto Ráfti", 
    "lat": "37.8844", 
    "lng": "24.0125", 
    "country": "Greece", 
    "iso2": "GR", 
    "admin_name": "Attikí", 
    "capital": "", 
    "population": "9686", 
    "population_proper": "9686"
  }, 
  {
    "Title": "Psychikó", 
    "lat": "38.0180", 
    "lng": "23.7804", 
    "country": "Greece", 
    "iso2": "GR", 
    "admin_name": "Attikí", 
    "capital": "minor", 
    "population": "9529", 
    "population_proper": "9529"
  }, 
  {
    "Title": "Néa Artáki", 
    "lat": "38.5167", 
    "lng": "23.6333", 
    "country": "Greece", 
    "iso2": "GR", 
    "admin_name": "Stereá Elláda", 
    "capital": "", 
    "population": "9489", 
    "population_proper": "9489"
  }, 
  {
    "Title": "Zefýri", 
    "lat": "38.0667", 
    "lng": "23.7167", 
    "country": "Greece", 
    "iso2": "GR", 
    "admin_name": "Attikí", 
    "capital": "", 
    "population": "9454", 
    "population_proper": "9454"
  }, 
  {
    "Title": "Siteía", 
    "lat": "35.2000", 
    "lng": "26.1000", 
    "country": "Greece", 
    "iso2": "GR", 
    "admin_name": "Kríti", 
    "capital": "minor", 
    "population": "9348", 
    "population_proper": "9348"
  }, 
  {
    "Title": "Néa Moudaniá", 
    "lat": "40.2386", 
    "lng": "23.2814", 
    "country": "Greece", 
    "iso2": "GR", 
    "admin_name": "Kentrikí Makedonía", 
    "capital": "minor", 
    "population": "9342", 
    "population_proper": "9342"
  }, 
  {
    "Title": "Fársala", 
    "lat": "39.2833", 
    "lng": "22.3833", 
    "country": "Greece", 
    "iso2": "GR", 
    "admin_name": "Thessalía", 
    "capital": "minor", 
    "population": "9298", 
    "population_proper": "9298"
  }, 
  {
    "Title": "Síndos", 
    "lat": "40.6667", 
    "lng": "22.8000", 
    "country": "Greece", 
    "iso2": "GR", 
    "admin_name": "Kentrikí Makedonía", 
    "capital": "minor", 
    "population": "9289", 
    "population_proper": "9289"
  }, 
  {
    "Title": "Didymóteicho", 
    "lat": "41.3500", 
    "lng": "26.5000", 
    "country": "Greece", 
    "iso2": "GR", 
    "admin_name": "Anatolikí Makedonía kai Thráki", 
    "capital": "minor", 
    "population": "9263", 
    "population_proper": "9263"
  }, 
  {
    "Title": "Spáta", 
    "lat": "37.9667", 
    "lng": "23.9167", 
    "country": "Greece", 
    "iso2": "GR", 
    "admin_name": "Attikí", 
    "capital": "minor", 
    "population": "9198", 
    "population_proper": "9198"
  }, 
  {
    "Title": "Epanomí", 
    "lat": "40.4261", 
    "lng": "22.9281", 
    "country": "Greece", 
    "iso2": "GR", 
    "admin_name": "Kentrikí Makedonía", 
    "capital": "", 
    "population": "8979", 
    "population_proper": "8979"
  }, 
  {
    "Title": "Chrysoúpoli", 
    "lat": "40.9833", 
    "lng": "24.7000", 
    "country": "Greece", 
    "iso2": "GR", 
    "admin_name": "Anatolikí Makedonía kai Thráki", 
    "capital": "minor", 
    "population": "8885", 
    "population_proper": "8885"
  }, 
  {
    "Title": "Néa Péramos", 
    "lat": "38.0000", 
    "lng": "23.4167", 
    "country": "Greece", 
    "iso2": "GR", 
    "admin_name": "Attikí", 
    "capital": "", 
    "population": "8333", 
    "population_proper": "8333"
  }, 
  {
    "Title": "Kalampáka", 
    "lat": "39.7044", 
    "lng": "21.6269", 
    "country": "Greece", 
    "iso2": "GR", 
    "admin_name": "Thessalía", 
    "capital": "minor", 
    "population": "8330", 
    "population_proper": "8330"
  }, 
  {
    "Title": "Almyrós", 
    "lat": "39.1803", 
    "lng": "22.7606", 
    "country": "Greece", 
    "iso2": "GR", 
    "admin_name": "Thessalía", 
    "capital": "minor", 
    "population": "7955", 
    "population_proper": "7955"
  }, 
  {
    "Title": "Koufália", 
    "lat": "40.7792", 
    "lng": "22.5767", 
    "country": "Greece", 
    "iso2": "GR", 
    "admin_name": "Kentrikí Makedonía", 
    "capital": "minor", 
    "population": "7850", 
    "population_proper": "7850"
  }, 
  {
    "Title": "Giánnouli", 
    "lat": "39.6672", 
    "lng": "22.3958", 
    "country": "Greece", 
    "iso2": "GR", 
    "admin_name": "Thessalía", 
    "capital": "", 
    "population": "7847", 
    "population_proper": "7847"
  }, 
  {
    "Title": "Lagkadás", 
    "lat": "40.7500", 
    "lng": "23.0667", 
    "country": "Greece", 
    "iso2": "GR", 
    "admin_name": "Kentrikí Makedonía", 
    "capital": "minor", 
    "population": "7764", 
    "population_proper": "7764"
  }, 
  {
    "Title": "Mourniés", 
    "lat": "35.4850", 
    "lng": "24.0130", 
    "country": "Greece", 
    "iso2": "GR", 
    "admin_name": "Kríti", 
    "capital": "", 
    "population": "7553", 
    "population_proper": "7553"
  }, 
  {
    "Title": "Elassóna", 
    "lat": "39.8947", 
    "lng": "22.1886", 
    "country": "Greece", 
    "iso2": "GR", 
    "admin_name": "Thessalía", 
    "capital": "minor", 
    "population": "7338", 
    "population_proper": "7338"
  }, 
  {
    "Title": "Chalástra", 
    "lat": "40.6267", 
    "lng": "22.7322", 
    "country": "Greece", 
    "iso2": "GR", 
    "admin_name": "Kentrikí Makedonía", 
    "capital": "", 
    "population": "7270", 
    "population_proper": "7270"
  }, 
  {
    "Title": "Néa Kallikráteia", 
    "lat": "40.3139", 
    "lng": "23.0633", 
    "country": "Greece", 
    "iso2": "GR", 
    "admin_name": "Kentrikí Makedonía", 
    "capital": "", 
    "population": "7238", 
    "population_proper": "7238"
  }, 
  {
    "Title": "Karpenísi", 
    "lat": "38.9203", 
    "lng": "21.7833", 
    "country": "Greece", 
    "iso2": "GR", 
    "admin_name": "Stereá Elláda", 
    "capital": "minor", 
    "population": "7183", 
    "population_proper": "7183"
  }, 
  {
    "Title": "Marathónas", 
    "lat": "38.1550", 
    "lng": "23.9636", 
    "country": "Greece", 
    "iso2": "GR", 
    "admin_name": "Attikí", 
    "capital": "minor", 
    "population": "7170", 
    "population_proper": "7170"
  }, 
  {
    "Title": "Lávrio", 
    "lat": "37.7000", 
    "lng": "24.0500", 
    "country": "Greece", 
    "iso2": "GR", 
    "admin_name": "Attikí", 
    "capital": "minor", 
    "population": "7078", 
    "population_proper": "7078"
  }, 
  {
    "Title": "Polýkastro", 
    "lat": "40.9954", 
    "lng": "22.5714", 
    "country": "Greece", 
    "iso2": "GR", 
    "admin_name": "Kentrikí Makedonía", 
    "capital": "minor", 
    "population": "7064", 
    "population_proper": "7064"
  }, 
  {
    "Title": "Litóchoro", 
    "lat": "40.1028", 
    "lng": "22.5069", 
    "country": "Greece", 
    "iso2": "GR", 
    "admin_name": "Kentrikí Makedonía", 
    "capital": "minor", 
    "population": "6995", 
    "population_proper": "6995"
  }, 
  {
    "Title": "Aígina", 
    "lat": "37.7467", 
    "lng": "23.4275", 
    "country": "Greece", 
    "iso2": "GR", 
    "admin_name": "Attikí", 
    "capital": "minor", 
    "population": "6867", 
    "population_proper": "6867"
  }, 
  {
    "Title": "Néo Karlovási", 
    "lat": "37.7917", 
    "lng": "26.7051", 
    "country": "Greece", 
    "iso2": "GR", 
    "admin_name": "Voreío Aigaío", 
    "capital": "", 
    "population": "6708", 
    "population_proper": "6708"
  }, 
  {
    "Title": "Káto Achaḯa", 
    "lat": "38.1500", 
    "lng": "21.5500", 
    "country": "Greece", 
    "iso2": "GR", 
    "admin_name": "Dytikí Elláda", 
    "capital": "minor", 
    "population": "6618", 
    "population_proper": "6618"
  }, 
  {
    "Title": "Aridaía", 
    "lat": "40.9750", 
    "lng": "22.0583", 
    "country": "Greece", 
    "iso2": "GR", 
    "admin_name": "Kentrikí Makedonía", 
    "capital": "minor", 
    "population": "6561", 
    "population_proper": "6561"
  }, 
  {
    "Title": "Soúda", 
    "lat": "35.4833", 
    "lng": "24.0667", 
    "country": "Greece", 
    "iso2": "GR", 
    "admin_name": "Kríti", 
    "capital": "", 
    "population": "6358", 
    "population_proper": "6358"
  }, 
  {
    "Title": "Kounoupidianá", 
    "lat": "35.5360", 
    "lng": "24.0760", 
    "country": "Greece", 
    "iso2": "GR", 
    "admin_name": "Kríti", 
    "capital": "", 
    "population": "6334", 
    "population_proper": "6334"
  }, 
  {
    "Title": "Anávyssos", 
    "lat": "37.7333", 
    "lng": "23.9500", 
    "country": "Greece", 
    "iso2": "GR", 
    "admin_name": "Attikí", 
    "capital": "", 
    "population": "6202", 
    "population_proper": "6202"
  }, 
  {
    "Title": "Polýgyros", 
    "lat": "40.3783", 
    "lng": "23.4453", 
    "country": "Greece", 
    "iso2": "GR", 
    "admin_name": "Kentrikí Makedonía", 
    "capital": "minor", 
    "population": "6121", 
    "population_proper": "6121"
  }, 
  {
    "Title": "Messíni", 
    "lat": "37.0500", 
    "lng": "22.0000", 
    "country": "Greece", 
    "iso2": "GR", 
    "admin_name": "Peloponnísos", 
    "capital": "minor", 
    "population": "6065", 
    "population_proper": "6065"
  }, 
  {
    "Title": "Néoi Epivátes", 
    "lat": "40.5010", 
    "lng": "22.9090", 
    "country": "Greece", 
    "iso2": "GR", 
    "admin_name": "Kentrikí Makedonía", 
    "capital": "", 
    "population": "5984", 
    "population_proper": "5984"
  }, 
  {
    "Title": "Filiatrá", 
    "lat": "37.1572", 
    "lng": "21.5858", 
    "country": "Greece", 
    "iso2": "GR", 
    "admin_name": "Peloponnísos", 
    "capital": "", 
    "population": "5969", 
    "population_proper": "5969"
  }, 
  {
    "Title": "Psachná", 
    "lat": "38.5828", 
    "lng": "23.6328", 
    "country": "Greece", 
    "iso2": "GR", 
    "admin_name": "Stereá Elláda", 
    "capital": "minor", 
    "population": "5827", 
    "population_proper": "5827"
  }, 
  {
    "Title": "Megalópoli", 
    "lat": "37.4000", 
    "lng": "22.1333", 
    "country": "Greece", 
    "iso2": "GR", 
    "admin_name": "Peloponnísos", 
    "capital": "minor", 
    "population": "5748", 
    "population_proper": "5748"
  }, 
  {
    "Title": "Mýrina", 
    "lat": "39.8797", 
    "lng": "25.0742", 
    "country": "Greece", 
    "iso2": "GR", 
    "admin_name": "Voreío Aigaío", 
    "capital": "minor", 
    "population": "5711", 
    "population_proper": "5711"
  }, 
  {
    "Title": "Diónysos", 
    "lat": "38.1000", 
    "lng": "23.8667", 
    "country": "Greece", 
    "iso2": "GR", 
    "admin_name": "Attikí", 
    "capital": "", 
    "population": "5651", 
    "population_proper": "5651"
  }, 
  {
    "Title": "Nerokoúros", 
    "lat": "35.4758", 
    "lng": "24.0383", 
    "country": "Greece", 
    "iso2": "GR", 
    "admin_name": "Kríti", 
    "capital": "", 
    "population": "5531", 
    "population_proper": "5531"
  }, 
  {
    "Title": "Xylókastro", 
    "lat": "38.0667", 
    "lng": "22.6333", 
    "country": "Greece", 
    "iso2": "GR", 
    "admin_name": "Peloponnísos", 
    "capital": "minor", 
    "population": "5500", 
    "population_proper": "5500"
  }, 
  {
    "Title": "Fílyro", 
    "lat": "40.6911", 
    "lng": "23.0042", 
    "country": "Greece", 
    "iso2": "GR", 
    "admin_name": "Kentrikí Makedonía", 
    "capital": "", 
    "population": "5495", 
    "population_proper": "5495"
  }, 
  {
    "Title": "Siátista", 
    "lat": "40.2564", 
    "lng": "21.5522", 
    "country": "Greece", 
    "iso2": "GR", 
    "admin_name": "Dytikí Makedonía", 
    "capital": "minor", 
    "population": "5490", 
    "population_proper": "5490"
  }, 
  {
    "Title": "Féres", 
    "lat": "40.8933", 
    "lng": "26.1739", 
    "country": "Greece", 
    "iso2": "GR", 
    "admin_name": "Anatolikí Makedonía kai Thráki", 
    "capital": "", 
    "population": "5457", 
    "population_proper": "5457"
  }, 
  {
    "Title": "Skýdra", 
    "lat": "40.7667", 
    "lng": "22.1500", 
    "country": "Greece", 
    "iso2": "GR", 
    "admin_name": "Kentrikí Makedonía", 
    "capital": "minor", 
    "population": "5406", 
    "population_proper": "5406"
  }, 
  {
    "Title": "Archángelos", 
    "lat": "36.2167", 
    "lng": "28.1167", 
    "country": "Greece", 
    "iso2": "GR", 
    "admin_name": "Notío Aigaío", 
    "capital": "", 
    "population": "5384", 
    "population_proper": "5384"
  }, 
  {
    "Title": "Kremastí", 
    "lat": "36.4105", 
    "lng": "28.1191", 
    "country": "Greece", 
    "iso2": "GR", 
    "admin_name": "Notío Aigaío", 
    "capital": "", 
    "population": "5363", 
    "population_proper": "5363"
  }, 
  {
    "Title": "Vrontádos", 
    "lat": "38.4167", 
    "lng": "26.1333", 
    "country": "Greece", 
    "iso2": "GR", 
    "admin_name": "Voreío Aigaío", 
    "capital": "", 
    "population": "5323", 
    "population_proper": "5323"
  }, 
  {
    "Title": "Tympáki", 
    "lat": "35.0719", 
    "lng": "24.7683", 
    "country": "Greece", 
    "iso2": "GR", 
    "admin_name": "Kríti", 
    "capital": "", 
    "population": "5285", 
    "population_proper": "5285"
  }, 
  {
    "Title": "Orchomenós", 
    "lat": "38.4933", 
    "lng": "22.9749", 
    "country": "Greece", 
    "iso2": "GR", 
    "admin_name": "Stereá Elláda", 
    "capital": "minor", 
    "population": "5238", 
    "population_proper": "5238"
  }, 
  {
    "Title": "Agriá", 
    "lat": "39.3400", 
    "lng": "23.0133", 
    "country": "Greece", 
    "iso2": "GR", 
    "admin_name": "Thessalía", 
    "capital": "", 
    "population": "5191", 
    "population_proper": "5191"
  }, 
  {
    "Title": "Néa Anchiálos", 
    "lat": "39.2667", 
    "lng": "22.8167", 
    "country": "Greece", 
    "iso2": "GR", 
    "admin_name": "Thessalía", 
    "capital": "", 
    "population": "5132", 
    "population_proper": "5132"
  }, 
  {
    "Title": "Kyparissía", 
    "lat": "37.2333", 
    "lng": "21.6667", 
    "country": "Greece", 
    "iso2": "GR", 
    "admin_name": "Peloponnísos", 
    "capital": "minor", 
    "population": "5131", 
    "population_proper": "5131"
  }, 
  {
    "Title": "Gargaliánoi", 
    "lat": "37.0667", 
    "lng": "21.6333", 
    "country": "Greece", 
    "iso2": "GR", 
    "admin_name": "Peloponnísos", 
    "capital": "", 
    "population": "5007", 
    "population_proper": "5007"
  }, 
  {
    "Title": "Nigríta", 
    "lat": "40.9133", 
    "lng": "23.5014", 
    "country": "Greece", 
    "iso2": "GR", 
    "admin_name": "Kentrikí Makedonía", 
    "capital": "minor", 
    "population": "4947", 
    "population_proper": "4947"
  }, 
  {
    "Title": "Skiáthos", 
    "lat": "39.1652", 
    "lng": "23.4895", 
    "country": "Greece", 
    "iso2": "GR", 
    "admin_name": "Thessalía", 
    "capital": "minor", 
    "population": "4883", 
    "population_proper": "4883"
  }, 
  {
    "Title": "Chortiátis", 
    "lat": "40.6083", 
    "lng": "23.1028", 
    "country": "Greece", 
    "iso2": "GR", 
    "admin_name": "Kentrikí Makedonía", 
    "capital": "", 
    "population": "4873", 
    "population_proper": "4873"
  }, 
  {
    "Title": "Alivéri", 
    "lat": "38.4083", 
    "lng": "24.0417", 
    "country": "Greece", 
    "iso2": "GR", 
    "admin_name": "Stereá Elláda", 
    "capital": "minor", 
    "population": "4827", 
    "population_proper": "4827"
  }, 
  {
    "Title": "Tínos", 
    "lat": "37.5377", 
    "lng": "25.1611", 
    "country": "Greece", 
    "iso2": "GR", 
    "admin_name": "Notío Aigaío", 
    "capital": "minor", 
    "population": "4762", 
    "population_proper": "4762"
  }, 
  {
    "Title": "Magoúla", 
    "lat": "38.0833", 
    "lng": "23.5167", 
    "country": "Greece", 
    "iso2": "GR", 
    "admin_name": "Attikí", 
    "capital": "", 
    "population": "4735", 
    "population_proper": "4735"
  }, 
  {
    "Title": "Stafidókampos", 
    "lat": "37.8933", 
    "lng": "21.2933", 
    "country": "Greece", 
    "iso2": "GR", 
    "admin_name": "Dytikí Elláda", 
    "capital": "", 
    "population": "4716", 
    "population_proper": "4716"
  }, 
  {
    "Title": "Ampelákia", 
    "lat": "37.9500", 
    "lng": "23.5167", 
    "country": "Greece", 
    "iso2": "GR", 
    "admin_name": "Attikí", 
    "capital": "", 
    "population": "4710", 
    "population_proper": "4710"
  }, 
  {
    "Title": "Vónitsa", 
    "lat": "38.9153", 
    "lng": "20.8911", 
    "country": "Greece", 
    "iso2": "GR", 
    "admin_name": "Dytikí Elláda", 
    "capital": "minor", 
    "population": "4703", 
    "population_proper": "4703"
  }, 
  {
    "Title": "Filippiáda", 
    "lat": "39.2028", 
    "lng": "20.8842", 
    "country": "Greece", 
    "iso2": "GR", 
    "admin_name": "Ípeiros", 
    "capital": "minor", 
    "population": "4619", 
    "population_proper": "4619"
  }, 
  {
    "Title": "Alíartos", 
    "lat": "38.3667", 
    "lng": "23.1000", 
    "country": "Greece", 
    "iso2": "GR", 
    "admin_name": "Stereá Elláda", 
    "capital": "minor", 
    "population": "4402", 
    "population_proper": "4402"
  }, 
  {
    "Title": "Zevgolatió", 
    "lat": "37.9333", 
    "lng": "22.8000", 
    "country": "Greece", 
    "iso2": "GR", 
    "admin_name": "Peloponnísos", 
    "capital": "", 
    "population": "4363", 
    "population_proper": "4363"
  }, 
  {
    "Title": "Itéa", 
    "lat": "38.4333", 
    "lng": "22.4333", 
    "country": "Greece", 
    "iso2": "GR", 
    "admin_name": "Stereá Elláda", 
    "capital": "", 
    "population": "4362", 
    "population_proper": "4362"
  }, 
  {
    "Title": "Istiaía", 
    "lat": "38.9500", 
    "lng": "23.1500", 
    "country": "Greece", 
    "iso2": "GR", 
    "admin_name": "Stereá Elláda", 
    "capital": "minor", 
    "population": "4339", 
    "population_proper": "4339"
  }, 
  {
    "Title": "Arkalochóri", 
    "lat": "35.1500", 
    "lng": "25.2667", 
    "country": "Greece", 
    "iso2": "GR", 
    "admin_name": "Kríti", 
    "capital": "", 
    "population": "4313", 
    "population_proper": "4313"
  }, 
  {
    "Title": "Gýtheio", 
    "lat": "36.7617", 
    "lng": "22.5661", 
    "country": "Greece", 
    "iso2": "GR", 
    "admin_name": "Peloponnísos", 
    "capital": "minor", 
    "population": "4279", 
    "population_proper": "4279"
  }, 
  {
    "Title": "Néa Magnisía", 
    "lat": "40.6878", 
    "lng": "22.8458", 
    "country": "Greece", 
    "iso2": "GR", 
    "admin_name": "Kentrikí Makedonía", 
    "capital": "", 
    "population": "4266", 
    "population_proper": "4266"
  }, 
  {
    "Title": "Kíssamos", 
    "lat": "35.4833", 
    "lng": "23.6500", 
    "country": "Greece", 
    "iso2": "GR", 
    "admin_name": "Kríti", 
    "capital": "minor", 
    "population": "4236", 
    "population_proper": "4236"
  }, 
  {
    "Title": "Vouliagméni", 
    "lat": "37.8000", 
    "lng": "23.7833", 
    "country": "Greece", 
    "iso2": "GR", 
    "admin_name": "Attikí", 
    "capital": "", 
    "population": "4180", 
    "population_proper": "4180"
  }, 
  {
    "Title": "Aigínio", 
    "lat": "40.5022", 
    "lng": "22.5422", 
    "country": "Greece", 
    "iso2": "GR", 
    "admin_name": "Kentrikí Makedonía", 
    "capital": "minor", 
    "population": "4153", 
    "population_proper": "4153"
  }, 
  {
    "Title": "Kítsi", 
    "lat": "37.8456", 
    "lng": "23.8267", 
    "country": "Greece", 
    "iso2": "GR", 
    "admin_name": "Attikí", 
    "capital": "", 
    "population": "4091", 
    "population_proper": "4091"
  }, 
  {
    "Title": "Schimatári", 
    "lat": "38.3500", 
    "lng": "23.5833", 
    "country": "Greece", 
    "iso2": "GR", 
    "admin_name": "Stereá Elláda", 
    "capital": "minor", 
    "population": "4035", 
    "population_proper": "4035"
  }, 
  {
    "Title": "Aitolikó", 
    "lat": "38.4369", 
    "lng": "21.3536", 
    "country": "Greece", 
    "iso2": "GR", 
    "admin_name": "Dytikí Elláda", 
    "capital": "", 
    "population": "4012", 
    "population_proper": "4012"
  }, 
  {
    "Title": "Kranídi", 
    "lat": "37.3750", 
    "lng": "23.1583", 
    "country": "Greece", 
    "iso2": "GR", 
    "admin_name": "Peloponnísos", 
    "capital": "minor", 
    "population": "4006", 
    "population_proper": "4006"
  }, 
  {
    "Title": "Spétses", 
    "lat": "37.2591", 
    "lng": "23.1364", 
    "country": "Greece", 
    "iso2": "GR", 
    "admin_name": "Attikí", 
    "capital": "minor", 
    "population": "4001", 
    "population_proper": "4001"
  }, 
  {
    "Title": "Andravída", 
    "lat": "37.9058", 
    "lng": "21.2667", 
    "country": "Greece", 
    "iso2": "GR", 
    "admin_name": "Dytikí Elláda", 
    "capital": "", 
    "population": "3981", 
    "population_proper": "3981"
  }, 
  {
    "Title": "Katsikás", 
    "lat": "39.6228", 
    "lng": "20.8875", 
    "country": "Greece", 
    "iso2": "GR", 
    "admin_name": "Ípeiros", 
    "capital": "", 
    "population": "3885", 
    "population_proper": "3885"
  }, 
  {
    "Title": "Néa Raidestós", 
    "lat": "40.5239", 
    "lng": "23.0508", 
    "country": "Greece", 
    "iso2": "GR", 
    "admin_name": "Kentrikí Makedonía", 
    "capital": "", 
    "population": "3869", 
    "population_proper": "3869"
  }, 
  {
    "Title": "Neméa", 
    "lat": "37.8167", 
    "lng": "22.6667", 
    "country": "Greece", 
    "iso2": "GR", 
    "admin_name": "Peloponnísos", 
    "capital": "minor", 
    "population": "3853", 
    "population_proper": "3853"
  }, 
  {
    "Title": "Potamós", 
    "lat": "39.6239", 
    "lng": "19.8792", 
    "country": "Greece", 
    "iso2": "GR", 
    "admin_name": "Ionía Nísia", 
    "capital": "", 
    "population": "3840", 
    "population_proper": "3840"
  }, 
  {
    "Title": "Souflí", 
    "lat": "41.1942", 
    "lng": "26.3023", 
    "country": "Greece", 
    "iso2": "GR", 
    "admin_name": "Anatolikí Makedonía kai Thráki", 
    "capital": "minor", 
    "population": "3837", 
    "population_proper": "3837"
  }, 
  {
    "Title": "Amfilochía", 
    "lat": "38.8592", 
    "lng": "21.1758", 
    "country": "Greece", 
    "iso2": "GR", 
    "admin_name": "Dytikí Elláda", 
    "capital": "minor", 
    "population": "3827", 
    "population_proper": "3827"
  }, 
  {
    "Title": "Mýkonos", 
    "lat": "37.4453", 
    "lng": "25.3287", 
    "country": "Greece", 
    "iso2": "GR", 
    "admin_name": "Notío Aigaío", 
    "capital": "minor", 
    "population": "3783", 
    "population_proper": "3783"
  }, 
  {
    "Title": "Vasiliká", 
    "lat": "40.4800", 
    "lng": "23.1367", 
    "country": "Greece", 
    "iso2": "GR", 
    "admin_name": "Kentrikí Makedonía", 
    "capital": "", 
    "population": "3762", 
    "population_proper": "3762"
  }, 
  {
    "Title": "Leonídio", 
    "lat": "37.1667", 
    "lng": "22.8500", 
    "country": "Greece", 
    "iso2": "GR", 
    "admin_name": "Peloponnísos", 
    "capital": "minor", 
    "population": "3761", 
    "population_proper": "3761"
  }, 
  {
    "Title": "Lixoúri", 
    "lat": "38.2000", 
    "lng": "20.4333", 
    "country": "Greece", 
    "iso2": "GR", 
    "admin_name": "Ionía Nísia", 
    "capital": "", 
    "population": "3752", 
    "population_proper": "3752"
  }, 
  {
    "Title": "Leptokaryá", 
    "lat": "40.0603", 
    "lng": "22.5612", 
    "country": "Greece", 
    "iso2": "GR", 
    "admin_name": "Kentrikí Makedonía", 
    "capital": "", 
    "population": "3700", 
    "population_proper": "3700"
  }, 
  {
    "Title": "Stavrós", 
    "lat": "40.6642", 
    "lng": "23.6961", 
    "country": "Greece", 
    "iso2": "GR", 
    "admin_name": "Kentrikí Makedonía", 
    "capital": "minor", 
    "population": "3672", 
    "population_proper": "3672"
  }, 
  {
    "Title": "Amýntaio", 
    "lat": "40.6897", 
    "lng": "21.6797", 
    "country": "Greece", 
    "iso2": "GR", 
    "admin_name": "Dytikí Makedonía", 
    "capital": "minor", 
    "population": "3671", 
    "population_proper": "3671"
  }, 
  {
    "Title": "Kimméria", 
    "lat": "41.1475", 
    "lng": "24.9388", 
    "country": "Greece", 
    "iso2": "GR", 
    "admin_name": "Anatolikí Makedonía kai Thráki", 
    "capital": "", 
    "population": "3644", 
    "population_proper": "3644"
  }, 
  {
    "Title": "Gouménissa", 
    "lat": "40.9481", 
    "lng": "22.4519", 
    "country": "Greece", 
    "iso2": "GR", 
    "admin_name": "Kentrikí Makedonía", 
    "capital": "", 
    "population": "3609", 
    "population_proper": "3609"
  }, 
  {
    "Title": "Vartholomió", 
    "lat": "37.8622", 
    "lng": "21.2058", 
    "country": "Greece", 
    "iso2": "GR", 
    "admin_name": "Dytikí Elláda", 
    "capital": "", 
    "population": "3603", 
    "population_proper": "3603"
  }, 
  {
    "Title": "Lagyná", 
    "lat": "40.7233", 
    "lng": "23.0050", 
    "country": "Greece", 
    "iso2": "GR", 
    "admin_name": "Kentrikí Makedonía", 
    "capital": "", 
    "population": "3591", 
    "population_proper": "3591"
  }, 
  {
    "Title": "Prosotsáni", 
    "lat": "41.1786", 
    "lng": "23.9722", 
    "country": "Greece", 
    "iso2": "GR", 
    "admin_name": "Anatolikí Makedonía kai Thráki", 
    "capital": "minor", 
    "population": "3553", 
    "population_proper": "3553"
  }, 
  {
    "Title": "Néa Péramos", 
    "lat": "40.8389", 
    "lng": "24.3036", 
    "country": "Greece", 
    "iso2": "GR", 
    "admin_name": "Anatolikí Makedonía kai Thráki", 
    "capital": "", 
    "population": "3514", 
    "population_proper": "3514"
  }, 
  {
    "Title": "Korinós", 
    "lat": "40.3167", 
    "lng": "22.5833", 
    "country": "Greece", 
    "iso2": "GR", 
    "admin_name": "Kentrikí Makedonía", 
    "capital": "", 
    "population": "3487", 
    "population_proper": "3487"
  }, 
  {
    "Title": "Krinídes", 
    "lat": "41.0131", 
    "lng": "24.2950", 
    "country": "Greece", 
    "iso2": "GR", 
    "admin_name": "Anatolikí Makedonía kai Thráki", 
    "capital": "", 
    "population": "3365", 
    "population_proper": "3365"
  }, 
  {
    "Title": "Velventós", 
    "lat": "40.2547", 
    "lng": "22.0742", 
    "country": "Greece", 
    "iso2": "GR", 
    "admin_name": "Dytikí Makedonía", 
    "capital": "", 
    "population": "3360", 
    "population_proper": "3360"
  }, 
  {
    "Title": "Kapandríti", 
    "lat": "38.2167", 
    "lng": "23.8833", 
    "country": "Greece", 
    "iso2": "GR", 
    "admin_name": "Attikí", 
    "capital": "", 
    "population": "3359", 
    "population_proper": "3359"
  }, 
  {
    "Title": "Sápes", 
    "lat": "41.0333", 
    "lng": "25.7000", 
    "country": "Greece", 
    "iso2": "GR", 
    "admin_name": "Anatolikí Makedonía kai Thráki", 
    "capital": "minor", 
    "population": "3351", 
    "population_proper": "3351"
  }, 
  {
    "Title": "Vracháti", 
    "lat": "37.9500", 
    "lng": "22.8000", 
    "country": "Greece", 
    "iso2": "GR", 
    "admin_name": "Peloponnísos", 
    "capital": "", 
    "population": "3338", 
    "population_proper": "3338"
  }, 
  {
    "Title": "Lití", 
    "lat": "40.7447", 
    "lng": "22.9781", 
    "country": "Greece", 
    "iso2": "GR", 
    "admin_name": "Kentrikí Makedonía", 
    "capital": "", 
    "population": "3302", 
    "population_proper": "3302"
  }, 
  {
    "Title": "Ierissós", 
    "lat": "40.3983", 
    "lng": "23.8783", 
    "country": "Greece", 
    "iso2": "GR", 
    "admin_name": "Kentrikí Makedonía", 
    "capital": "minor", 
    "population": "3266", 
    "population_proper": "3266"
  }, 
  {
    "Title": "Thásos", 
    "lat": "40.7781", 
    "lng": "24.7094", 
    "country": "Greece", 
    "iso2": "GR", 
    "admin_name": "Anatolikí Makedonía kai Thráki", 
    "capital": "minor", 
    "population": "3234", 
    "population_proper": "3234"
  }, 
  {
    "Title": "Itháki", 
    "lat": "38.4167", 
    "lng": "20.6667", 
    "country": "Greece", 
    "iso2": "GR", 
    "admin_name": "Ionía Nísia", 
    "capital": "minor", 
    "population": "3231", 
    "population_proper": "3231"
  }, 
  {
    "Title": "Mália", 
    "lat": "35.2836", 
    "lng": "25.4625", 
    "country": "Greece", 
    "iso2": "GR", 
    "admin_name": "Kríti", 
    "capital": "", 
    "population": "3224", 
    "population_proper": "3224"
  }, 
  {
    "Title": "Néos Marmarás", 
    "lat": "40.0967", 
    "lng": "23.7831", 
    "country": "Greece", 
    "iso2": "GR", 
    "admin_name": "Kentrikí Makedonía", 
    "capital": "", 
    "population": "3158", 
    "population_proper": "3158"
  }, 
  {
    "Title": "Zacháro", 
    "lat": "37.4861", 
    "lng": "21.6494", 
    "country": "Greece", 
    "iso2": "GR", 
    "admin_name": "Dytikí Elláda", 
    "capital": "minor", 
    "population": "3145", 
    "population_proper": "3145"
  }, 
  {
    "Title": "Kallithéa", 
    "lat": "40.2750", 
    "lng": "22.5750", 
    "country": "Greece", 
    "iso2": "GR", 
    "admin_name": "Kentrikí Makedonía", 
    "capital": "", 
    "population": "3134", 
    "population_proper": "3134"
  }, 
  {
    "Title": "Melíki", 
    "lat": "40.5167", 
    "lng": "22.4000", 
    "country": "Greece", 
    "iso2": "GR", 
    "admin_name": "Kentrikí Makedonía", 
    "capital": "", 
    "population": "3116", 
    "population_proper": "3116"
  }, 
  {
    "Title": "Kalampáki", 
    "lat": "41.0500", 
    "lng": "24.1833", 
    "country": "Greece", 
    "iso2": "GR", 
    "admin_name": "Anatolikí Makedonía kai Thráki", 
    "capital": "minor", 
    "population": "3110", 
    "population_proper": "3110"
  }, 
  {
    "Title": "Néa Tríglia", 
    "lat": "40.3061", 
    "lng": "23.2086", 
    "country": "Greece", 
    "iso2": "GR", 
    "admin_name": "Kentrikí Makedonía", 
    "capital": "", 
    "population": "3102", 
    "population_proper": "3102"
  }, 
  {
    "Title": "Sochós", 
    "lat": "40.8164", 
    "lng": "23.3542", 
    "country": "Greece", 
    "iso2": "GR", 
    "admin_name": "Kentrikí Makedonía", 
    "capital": "", 
    "population": "3094", 
    "population_proper": "3094"
  }, 
  {
    "Title": "Skópelos", 
    "lat": "39.1167", 
    "lng": "23.7167", 
    "country": "Greece", 
    "iso2": "GR", 
    "admin_name": "Thessalía", 
    "capital": "minor", 
    "population": "3090", 
    "population_proper": "3090"
  }, 
  {
    "Title": "Skála", 
    "lat": "36.8525", 
    "lng": "22.6661", 
    "country": "Greece", 
    "iso2": "GR", 
    "admin_name": "Peloponnísos", 
    "capital": "minor", 
    "population": "3067", 
    "population_proper": "3067"
  }, 
  {
    "Title": "Ntráfi", 
    "lat": "38.0333", 
    "lng": "23.9000", 
    "country": "Greece", 
    "iso2": "GR", 
    "admin_name": "Attikí", 
    "capital": "", 
    "population": "3055", 
    "population_proper": "3055"
  }, 
  {
    "Title": "Maniákoi", 
    "lat": "40.5019", 
    "lng": "21.2447", 
    "country": "Greece", 
    "iso2": "GR", 
    "admin_name": "Dytikí Makedonía", 
    "capital": "", 
    "population": "3055", 
    "population_proper": "3055"
  }, 
  {
    "Title": "Néa Mesimvría", 
    "lat": "40.7517", 
    "lng": "22.7692", 
    "country": "Greece", 
    "iso2": "GR", 
    "admin_name": "Kentrikí Makedonía", 
    "capital": "", 
    "population": "3050", 
    "population_proper": "3050"
  }, 
  {
    "Title": "Velestíno", 
    "lat": "39.3817", 
    "lng": "22.7450", 
    "country": "Greece", 
    "iso2": "GR", 
    "admin_name": "Thessalía", 
    "capital": "minor", 
    "population": "3044", 
    "population_proper": "3044"
  }, 
  {
    "Title": "Plomári", 
    "lat": "38.9833", 
    "lng": "26.3667", 
    "country": "Greece", 
    "iso2": "GR", 
    "admin_name": "Voreío Aigaío", 
    "capital": "", 
    "population": "2996", 
    "population_proper": "2996"
  }, 
  {
    "Title": "Ormýlia", 
    "lat": "40.2944", 
    "lng": "23.5433", 
    "country": "Greece", 
    "iso2": "GR", 
    "admin_name": "Kentrikí Makedonía", 
    "capital": "", 
    "population": "2979", 
    "population_proper": "2979"
  }, 
  {
    "Title": "Néo Rýsi", 
    "lat": "40.4961", 
    "lng": "22.9881", 
    "country": "Greece", 
    "iso2": "GR", 
    "admin_name": "Kentrikí Makedonía", 
    "capital": "", 
    "population": "2952", 
    "population_proper": "2952"
  }, 
  {
    "Title": "Kónitsa", 
    "lat": "40.0417", 
    "lng": "20.7450", 
    "country": "Greece", 
    "iso2": "GR", 
    "admin_name": "Ípeiros", 
    "capital": "minor", 
    "population": "2942", 
    "population_proper": "2942"
  }, 
  {
    "Title": "Lefkímmi", 
    "lat": "39.4167", 
    "lng": "20.0667", 
    "country": "Greece", 
    "iso2": "GR", 
    "admin_name": "Ionía Nísia", 
    "capital": "", 
    "population": "2935", 
    "population_proper": "2935"
  }, 
  {
    "Title": "Panaitólio", 
    "lat": "38.5833", 
    "lng": "21.4461", 
    "country": "Greece", 
    "iso2": "GR", 
    "admin_name": "Dytikí Elláda", 
    "capital": "", 
    "population": "2935", 
    "population_proper": "2935"
  }, 
  {
    "Title": "Saronída", 
    "lat": "37.7333", 
    "lng": "23.9000", 
    "country": "Greece", 
    "iso2": "GR", 
    "admin_name": "Attikí", 
    "capital": "", 
    "population": "2932", 
    "population_proper": "2932"
  }, 
  {
    "Title": "Axioúpoli", 
    "lat": "40.9858", 
    "lng": "22.5417", 
    "country": "Greece", 
    "iso2": "GR", 
    "admin_name": "Kentrikí Makedonía", 
    "capital": "", 
    "population": "2897", 
    "population_proper": "2897"
  }, 
  {
    "Title": "Erythrés", 
    "lat": "38.2167", 
    "lng": "23.3167", 
    "country": "Greece", 
    "iso2": "GR", 
    "admin_name": "Attikí", 
    "capital": "", 
    "population": "2862", 
    "population_proper": "2862"
  }, 
  {
    "Title": "Asproválta", 
    "lat": "40.7247", 
    "lng": "23.7056", 
    "country": "Greece", 
    "iso2": "GR", 
    "admin_name": "Kentrikí Makedonía", 
    "capital": "", 
    "population": "2838", 
    "population_proper": "2838"
  }, 
  {
    "Title": "Katochí", 
    "lat": "38.4142", 
    "lng": "21.2542", 
    "country": "Greece", 
    "iso2": "GR", 
    "admin_name": "Dytikí Elláda", 
    "capital": "", 
    "population": "2829", 
    "population_proper": "2829"
  }, 
  {
    "Title": "Neochóri", 
    "lat": "38.4083", 
    "lng": "21.2750", 
    "country": "Greece", 
    "iso2": "GR", 
    "admin_name": "Dytikí Elláda", 
    "capital": "", 
    "population": "2827", 
    "population_proper": "2827"
  }, 
  {
    "Title": "Kolindrós", 
    "lat": "40.4783", 
    "lng": "22.4861", 
    "country": "Greece", 
    "iso2": "GR", 
    "admin_name": "Kentrikí Makedonía", 
    "capital": "", 
    "population": "2822", 
    "population_proper": "2822"
  }, 
  {
    "Title": "Néa Výssa", 
    "lat": "41.5833", 
    "lng": "26.5333", 
    "country": "Greece", 
    "iso2": "GR", 
    "admin_name": "Anatolikí Makedonía kai Thráki", 
    "capital": "", 
    "population": "2805", 
    "population_proper": "2805"
  }, 
  {
    "Title": "Néa Kíos", 
    "lat": "37.5875", 
    "lng": "22.7444", 
    "country": "Greece", 
    "iso2": "GR", 
    "admin_name": "Peloponnísos", 
    "capital": "", 
    "population": "2778", 
    "population_proper": "2778"
  }, 
  {
    "Title": "Kassándreia", 
    "lat": "40.0467", 
    "lng": "23.4161", 
    "country": "Greece", 
    "iso2": "GR", 
    "admin_name": "Kentrikí Makedonía", 
    "capital": "minor", 
    "population": "2775", 
    "population_proper": "2775"
  }, 
  {
    "Title": "Kaména Voúrla", 
    "lat": "38.7833", 
    "lng": "22.7833", 
    "country": "Greece", 
    "iso2": "GR", 
    "admin_name": "Stereá Elláda", 
    "capital": "minor", 
    "population": "2761", 
    "population_proper": "2761"
  }, 
  {
    "Title": "Choristí", 
    "lat": "41.1300", 
    "lng": "24.2083", 
    "country": "Greece", 
    "iso2": "GR", 
    "admin_name": "Anatolikí Makedonía kai Thráki", 
    "capital": "", 
    "population": "2725", 
    "population_proper": "2725"
  }, 
  {
    "Title": "Néa Palátia", 
    "lat": "38.3167", 
    "lng": "23.7833", 
    "country": "Greece", 
    "iso2": "GR", 
    "admin_name": "Attikí", 
    "capital": "", 
    "population": "2723", 
    "population_proper": "2723"
  }, 
  {
    "Title": "Palaiá Fókaia", 
    "lat": "37.7167", 
    "lng": "23.9500", 
    "country": "Greece", 
    "iso2": "GR", 
    "admin_name": "Attikí", 
    "capital": "", 
    "population": "2713", 
    "population_proper": "2713"
  }, 
  {
    "Title": "Níkiti", 
    "lat": "40.2228", 
    "lng": "23.6686", 
    "country": "Greece", 
    "iso2": "GR", 
    "admin_name": "Kentrikí Makedonía", 
    "capital": "minor", 
    "population": "2711", 
    "population_proper": "2711"
  }, 
  {
    "Title": "Kárpathos", 
    "lat": "35.5075", 
    "lng": "27.2136", 
    "country": "Greece", 
    "iso2": "GR", 
    "admin_name": "Notío Aigaío", 
    "capital": "minor", 
    "population": "2707", 
    "population_proper": "2707"
  }, 
  {
    "Title": "Astakós", 
    "lat": "38.5333", 
    "lng": "21.0833", 
    "country": "Greece", 
    "iso2": "GR", 
    "admin_name": "Dytikí Elláda", 
    "capital": "minor", 
    "population": "2696", 
    "population_proper": "2696"
  }, 
  {
    "Title": "Spercheiáda", 
    "lat": "38.9167", 
    "lng": "22.1333", 
    "country": "Greece", 
    "iso2": "GR", 
    "admin_name": "Stereá Elláda", 
    "capital": "minor", 
    "population": "2691", 
    "population_proper": "2691"
  }, 
  {
    "Title": "Pálairos", 
    "lat": "38.7809", 
    "lng": "20.8785", 
    "country": "Greece", 
    "iso2": "GR", 
    "admin_name": "Dytikí Elláda", 
    "capital": "", 
    "population": "2664", 
    "population_proper": "2664"
  }, 
  {
    "Title": "Aráchova", 
    "lat": "38.4789", 
    "lng": "22.5867", 
    "country": "Greece", 
    "iso2": "GR", 
    "admin_name": "Stereá Elláda", 
    "capital": "", 
    "population": "2657", 
    "population_proper": "2657"
  }, 
  {
    "Title": "Lechainá", 
    "lat": "37.9333", 
    "lng": "21.2667", 
    "country": "Greece", 
    "iso2": "GR", 
    "admin_name": "Dytikí Elláda", 
    "capital": "minor", 
    "population": "2641", 
    "population_proper": "2641"
  }, 
  {
    "Title": "Sými", 
    "lat": "36.5989", 
    "lng": "27.8342", 
    "country": "Greece", 
    "iso2": "GR", 
    "admin_name": "Notío Aigaío", 
    "capital": "minor", 
    "population": "2590", 
    "population_proper": "2590"
  }, 
  {
    "Title": "Anatolikó", 
    "lat": "40.6631", 
    "lng": "22.7114", 
    "country": "Greece", 
    "iso2": "GR", 
    "admin_name": "Kentrikí Makedonía", 
    "capital": "", 
    "population": "2589", 
    "population_proper": "2589"
  }, 
  {
    "Title": "Kéntavros", 
    "lat": "41.2300", 
    "lng": "24.9500", 
    "country": "Greece", 
    "iso2": "GR", 
    "admin_name": "Anatolikí Makedonía kai Thráki", 
    "capital": "", 
    "population": "2580", 
    "population_proper": "2580"
  }, 
  {
    "Title": "Vrachnaíika", 
    "lat": "38.1669", 
    "lng": "21.6669", 
    "country": "Greece", 
    "iso2": "GR", 
    "admin_name": "Dytikí Elláda", 
    "capital": "", 
    "population": "2571", 
    "population_proper": "2571"
  }, 
  {
    "Title": "Rododáfni", 
    "lat": "38.2697", 
    "lng": "22.0489", 
    "country": "Greece", 
    "iso2": "GR", 
    "admin_name": "Dytikí Elláda", 
    "capital": "", 
    "population": "2564", 
    "population_proper": "2564"
  }, 
  {
    "Title": "Loutrá Aidipsoú", 
    "lat": "38.8556", 
    "lng": "23.0464", 
    "country": "Greece", 
    "iso2": "GR", 
    "admin_name": "Stereá Elláda", 
    "capital": "", 
    "population": "2560", 
    "population_proper": "2560"
  }, 
  {
    "Title": "Livanátes", 
    "lat": "38.7500", 
    "lng": "23.0333", 
    "country": "Greece", 
    "iso2": "GR", 
    "admin_name": "Stereá Elláda", 
    "capital": "", 
    "population": "2559", 
    "population_proper": "2559"
  }, 
  {
    "Title": "Markópoulo", 
    "lat": "38.2897", 
    "lng": "23.8247", 
    "country": "Greece", 
    "iso2": "GR", 
    "admin_name": "Attikí", 
    "capital": "", 
    "population": "2549", 
    "population_proper": "2549"
  }, 
  {
    "Title": "Galátista", 
    "lat": "40.4672", 
    "lng": "23.2806", 
    "country": "Greece", 
    "iso2": "GR", 
    "admin_name": "Kentrikí Makedonía", 
    "capital": "", 
    "population": "2537", 
    "population_proper": "2537"
  }, 
  {
    "Title": "Moláoi", 
    "lat": "36.8042", 
    "lng": "22.8547", 
    "country": "Greece", 
    "iso2": "GR", 
    "admin_name": "Peloponnísos", 
    "capital": "minor", 
    "population": "2534", 
    "population_proper": "2534"
  }, 
  {
    "Title": "Kanaláki", 
    "lat": "39.2325", 
    "lng": "20.5986", 
    "country": "Greece", 
    "iso2": "GR", 
    "admin_name": "Ípeiros", 
    "capital": "minor", 
    "population": "2513", 
    "population_proper": "2513"
  }, 
  {
    "Title": "Filiátes", 
    "lat": "39.6011", 
    "lng": "20.3119", 
    "country": "Greece", 
    "iso2": "GR", 
    "admin_name": "Ípeiros", 
    "capital": "minor", 
    "population": "2512", 
    "population_proper": "2512"
  }, 
  {
    "Title": "Ermióni", 
    "lat": "37.3833", 
    "lng": "23.2500", 
    "country": "Greece", 
    "iso2": "GR", 
    "admin_name": "Peloponnísos", 
    "capital": "", 
    "population": "2505", 
    "population_proper": "2505"
  }, 
  {
    "Title": "Métsovo", 
    "lat": "39.7703", 
    "lng": "21.1839", 
    "country": "Greece", 
    "iso2": "GR", 
    "admin_name": "Ípeiros", 
    "capital": "minor", 
    "population": "2503", 
    "population_proper": "2503"
  }, 
  {
    "Title": "Echínos", 
    "lat": "41.2758", 
    "lng": "24.9725", 
    "country": "Greece", 
    "iso2": "GR", 
    "admin_name": "Anatolikí Makedonía kai Thráki", 
    "capital": "", 
    "population": "2486", 
    "population_proper": "2486"
  }, 
  {
    "Title": "Ligourió", 
    "lat": "37.6144", 
    "lng": "23.0361", 
    "country": "Greece", 
    "iso2": "GR", 
    "admin_name": "Peloponnísos", 
    "capital": "", 
    "population": "2482", 
    "population_proper": "2482"
  }, 
  {
    "Title": "Limenária", 
    "lat": "40.6278", 
    "lng": "24.5767", 
    "country": "Greece", 
    "iso2": "GR", 
    "admin_name": "Anatolikí Makedonía kai Thráki", 
    "capital": "", 
    "population": "2471", 
    "population_proper": "2471"
  }, 
  {
    "Title": "Gónnoi", 
    "lat": "39.8611", 
    "lng": "22.4761", 
    "country": "Greece", 
    "iso2": "GR", 
    "admin_name": "Thessalía", 
    "capital": "", 
    "population": "2462", 
    "population_proper": "2462"
  }, 
  {
    "Title": "Néa Málgara", 
    "lat": "40.6097", 
    "lng": "22.6819", 
    "country": "Greece", 
    "iso2": "GR", 
    "admin_name": "Kentrikí Makedonía", 
    "capital": "", 
    "population": "2404", 
    "population_proper": "2404"
  }, 
  {
    "Title": "Pélla", 
    "lat": "40.7617", 
    "lng": "22.5264", 
    "country": "Greece", 
    "iso2": "GR", 
    "admin_name": "Kentrikí Makedonía", 
    "capital": "", 
    "population": "2398", 
    "population_proper": "2398"
  }, 
  {
    "Title": "Lefkónas", 
    "lat": "41.0983", 
    "lng": "23.4961", 
    "country": "Greece", 
    "iso2": "GR", 
    "admin_name": "Kentrikí Makedonía", 
    "capital": "", 
    "population": "2388", 
    "population_proper": "2388"
  }, 
  {
    "Title": "Kými", 
    "lat": "38.6343", 
    "lng": "24.1038", 
    "country": "Greece", 
    "iso2": "GR", 
    "admin_name": "Stereá Elláda", 
    "capital": "", 
    "population": "2383", 
    "population_proper": "2383"
  }, 
  {
    "Title": "Paramythiá", 
    "lat": "39.4667", 
    "lng": "20.5000", 
    "country": "Greece", 
    "iso2": "GR", 
    "admin_name": "Ípeiros", 
    "capital": "minor", 
    "population": "2363", 
    "population_proper": "2363"
  }, 
  {
    "Title": "Pýlos", 
    "lat": "36.9000", 
    "lng": "21.6833", 
    "country": "Greece", 
    "iso2": "GR", 
    "admin_name": "Peloponnísos", 
    "capital": "minor", 
    "population": "2345", 
    "population_proper": "2345"
  }, 
  {
    "Title": "Agiásos", 
    "lat": "39.0833", 
    "lng": "26.3711", 
    "country": "Greece", 
    "iso2": "GR", 
    "admin_name": "Voreío Aigaío", 
    "capital": "", 
    "population": "2320", 
    "population_proper": "2320"
  }, 
  {
    "Title": "Tycheró", 
    "lat": "41.0289", 
    "lng": "26.2944", 
    "country": "Greece", 
    "iso2": "GR", 
    "admin_name": "Anatolikí Makedonía kai Thráki", 
    "capital": "", 
    "population": "2311", 
    "population_proper": "2311"
  }, 
  {
    "Title": "Arnaía", 
    "lat": "40.4867", 
    "lng": "23.5947", 
    "country": "Greece", 
    "iso2": "GR", 
    "admin_name": "Kentrikí Makedonía", 
    "capital": "", 
    "population": "2300", 
    "population_proper": "2300"
  }, 
  {
    "Title": "Várda", 
    "lat": "38.0306", 
    "lng": "21.3650", 
    "country": "Greece", 
    "iso2": "GR", 
    "admin_name": "Dytikí Elláda", 
    "capital": "", 
    "population": "2291", 
    "population_proper": "2291"
  }, 
  {
    "Title": "Dimíni", 
    "lat": "39.3547", 
    "lng": "22.8892", 
    "country": "Greece", 
    "iso2": "GR", 
    "admin_name": "Thessalía", 
    "capital": "", 
    "population": "2261", 
    "population_proper": "2261"
  }, 
  {
    "Title": "Makrakómi", 
    "lat": "38.9333", 
    "lng": "22.1167", 
    "country": "Greece", 
    "iso2": "GR", 
    "admin_name": "Stereá Elláda", 
    "capital": "", 
    "population": "2245", 
    "population_proper": "2245"
  }, 
  {
    "Title": "Livádi", 
    "lat": "40.1333", 
    "lng": "22.1500", 
    "country": "Greece", 
    "iso2": "GR", 
    "admin_name": "Thessalía", 
    "capital": "", 
    "population": "2244", 
    "population_proper": "2244"
  }, 
  {
    "Title": "Nikísiani", 
    "lat": "40.9489", 
    "lng": "24.1417", 
    "country": "Greece", 
    "iso2": "GR", 
    "admin_name": "Anatolikí Makedonía kai Thráki", 
    "capital": "", 
    "population": "2236", 
    "population_proper": "2236"
  }, 
  {
    "Title": "Ágios Kírykos", 
    "lat": "37.6114", 
    "lng": "26.2931", 
    "country": "Greece", 
    "iso2": "GR", 
    "admin_name": "Voreío Aigaío", 
    "capital": "minor", 
    "population": "2218", 
    "population_proper": "2218"
  }, 
  {
    "Title": "Galatás", 
    "lat": "37.4967", 
    "lng": "23.4475", 
    "country": "Greece", 
    "iso2": "GR", 
    "admin_name": "Attikí", 
    "capital": "minor", 
    "population": "2195", 
    "population_proper": "2195"
  }, 
  {
    "Title": "Kyriáki", 
    "lat": "38.3500", 
    "lng": "22.7833", 
    "country": "Greece", 
    "iso2": "GR", 
    "admin_name": "Stereá Elláda", 
    "capital": "", 
    "population": "2185", 
    "population_proper": "2185"
  }, 
  {
    "Title": "Zagklivéri", 
    "lat": "40.5719", 
    "lng": "23.2889", 
    "country": "Greece", 
    "iso2": "GR", 
    "admin_name": "Kentrikí Makedonía", 
    "capital": "", 
    "population": "2171", 
    "population_proper": "2171"
  }, 
  {
    "Title": "Terpní", 
    "lat": "40.9167", 
    "lng": "23.4833", 
    "country": "Greece", 
    "iso2": "GR", 
    "admin_name": "Kentrikí Makedonía", 
    "capital": "", 
    "population": "2169", 
    "population_proper": "2169"
  }, 
  {
    "Title": "Néa Karváli", 
    "lat": "40.9606", 
    "lng": "24.5106", 
    "country": "Greece", 
    "iso2": "GR", 
    "admin_name": "Anatolikí Makedonía kai Thráki", 
    "capital": "", 
    "population": "2160", 
    "population_proper": "2160"
  }, 
  {
    "Title": "Káto Nevrokópi", 
    "lat": "41.3439", 
    "lng": "23.8667", 
    "country": "Greece", 
    "iso2": "GR", 
    "admin_name": "Anatolikí Makedonía kai Thráki", 
    "capital": "minor", 
    "population": "2157", 
    "population_proper": "2157"
  }, 
  {
    "Title": "Káto Goúves", 
    "lat": "35.3300", 
    "lng": "25.3119", 
    "country": "Greece", 
    "iso2": "GR", 
    "admin_name": "Kríti", 
    "capital": "", 
    "population": "2153", 
    "population_proper": "2153"
  }, 
  {
    "Title": "Anthoúsa", 
    "lat": "38.0333", 
    "lng": "23.8667", 
    "country": "Greece", 
    "iso2": "GR", 
    "admin_name": "Attikí", 
    "capital": "", 
    "population": "2132", 
    "population_proper": "2132"
  }, 
  {
    "Title": "Alistráti", 
    "lat": "41.0633", 
    "lng": "23.9581", 
    "country": "Greece", 
    "iso2": "GR", 
    "admin_name": "Kentrikí Makedonía", 
    "capital": "", 
    "population": "2127", 
    "population_proper": "2127"
  }, 
  {
    "Title": "Mintilógli", 
    "lat": "38.1833", 
    "lng": "21.7000", 
    "country": "Greece", 
    "iso2": "GR", 
    "admin_name": "Dytikí Elláda", 
    "capital": "", 
    "population": "2120", 
    "population_proper": "2120"
  }, 
  {
    "Title": "Zarós", 
    "lat": "35.1333", 
    "lng": "24.9000", 
    "country": "Greece", 
    "iso2": "GR", 
    "admin_name": "Kríti", 
    "capital": "", 
    "population": "2106", 
    "population_proper": "2106"
  }, 
  {
    "Title": "Polichnítos", 
    "lat": "39.0790", 
    "lng": "26.1810", 
    "country": "Greece", 
    "iso2": "GR", 
    "admin_name": "Voreío Aigaío", 
    "capital": "", 
    "population": "2102", 
    "population_proper": "2102"
  }, 
  {
    "Title": "Mesopotamía", 
    "lat": "40.5000", 
    "lng": "21.1500", 
    "country": "Greece", 
    "iso2": "GR", 
    "admin_name": "Dytikí Makedonía", 
    "capital": "", 
    "population": "2099", 
    "population_proper": "2099"
  }, 
  {
    "Title": "Tagarádes", 
    "lat": "40.4889", 
    "lng": "23.0222", 
    "country": "Greece", 
    "iso2": "GR", 
    "admin_name": "Kentrikí Makedonía", 
    "capital": "", 
    "population": "2088", 
    "population_proper": "2088"
  }, 
  {
    "Title": "Párga", 
    "lat": "39.2833", 
    "lng": "20.4000", 
    "country": "Greece", 
    "iso2": "GR", 
    "admin_name": "Ípeiros", 
    "capital": "", 
    "population": "2088", 
    "population_proper": "2088"
  }, 
  {
    "Title": "Rodópoli", 
    "lat": "38.1000", 
    "lng": "23.8667", 
    "country": "Greece", 
    "iso2": "GR", 
    "admin_name": "Attikí", 
    "capital": "", 
    "population": "2078", 
    "population_proper": "2078"
  }, 
  {
    "Title": "Zagorá", 
    "lat": "39.4428", 
    "lng": "23.1017", 
    "country": "Greece", 
    "iso2": "GR", 
    "admin_name": "Thessalía", 
    "capital": "minor", 
    "population": "2074", 
    "population_proper": "2074"
  }, 
  {
    "Title": "Antimácheia", 
    "lat": "36.8125", 
    "lng": "27.0983", 
    "country": "Greece", 
    "iso2": "GR", 
    "admin_name": "Notío Aigaío", 
    "capital": "", 
    "population": "2068", 
    "population_proper": "2068"
  }, 
  {
    "Title": "Karditsomagoúla", 
    "lat": "39.3917", 
    "lng": "21.9233", 
    "country": "Greece", 
    "iso2": "GR", 
    "admin_name": "Thessalía", 
    "capital": "", 
    "population": "2063", 
    "population_proper": "2063"
  }, 
  {
    "Title": "Sélero", 
    "lat": "41.1333", 
    "lng": "25.0000", 
    "country": "Greece", 
    "iso2": "GR", 
    "admin_name": "Anatolikí Makedonía kai Thráki", 
    "capital": "", 
    "population": "2059", 
    "population_proper": "2059"
  }, 
  {
    "Title": "Tsarítsani", 
    "lat": "39.8820", 
    "lng": "22.2280", 
    "country": "Greece", 
    "iso2": "GR", 
    "admin_name": "Thessalía", 
    "capital": "", 
    "population": "2040", 
    "population_proper": "2040"
  }, 
  {
    "Title": "Karítsa", 
    "lat": "40.1875", 
    "lng": "22.4819", 
    "country": "Greece", 
    "iso2": "GR", 
    "admin_name": "Kentrikí Makedonía", 
    "capital": "", 
    "population": "2025", 
    "population_proper": "2025"
  }, 
  {
    "Title": "Galaxídi", 
    "lat": "38.3767", 
    "lng": "22.3836", 
    "country": "Greece", 
    "iso2": "GR", 
    "admin_name": "Stereá Elláda", 
    "capital": "", 
    "population": "2011", 
    "population_proper": "2011"
  }, 
  {
    "Title": "Pikérmi", 
    "lat": "38.0000", 
    "lng": "23.9333", 
    "country": "Greece", 
    "iso2": "GR", 
    "admin_name": "Attikí", 
    "capital": "", 
    "population": "2009", 
    "population_proper": "2009"
  }, 
  {
    "Title": "Néa Manoláda", 
    "lat": "38.0500", 
    "lng": "21.3833", 
    "country": "Greece", 
    "iso2": "GR", 
    "admin_name": "Dytikí Elláda", 
    "capital": "", 
    "population": "2006", 
    "population_proper": "2006"
  }, 
  {
    "Title": "Aianí", 
    "lat": "40.1647", 
    "lng": "21.8208", 
    "country": "Greece", 
    "iso2": "GR", 
    "admin_name": "Dytikí Makedonía", 
    "capital": "", 
    "population": "2006", 
    "population_proper": "2006"
  }, 
  {
    "Title": "Kalloní", 
    "lat": "39.2328", 
    "lng": "26.2069", 
    "country": "Greece", 
    "iso2": "GR", 
    "admin_name": "Voreío Aigaío", 
    "capital": "", 
    "population": "1978", 
    "population_proper": "1978"
  }, 
  {
    "Title": "Dílesi", 
    "lat": "38.3425", 
    "lng": "23.6728", 
    "country": "Greece", 
    "iso2": "GR", 
    "admin_name": "Stereá Elláda", 
    "capital": "", 
    "population": "1976", 
    "population_proper": "1976"
  }, 
  {
    "Title": "Svorónos", 
    "lat": "40.2667", 
    "lng": "22.4667", 
    "country": "Greece", 
    "iso2": "GR", 
    "admin_name": "Kentrikí Makedonía", 
    "capital": "", 
    "population": "1948", 
    "population_proper": "1948"
  }, 
  {
    "Title": "Emporeío", 
    "lat": "36.3583", 
    "lng": "25.4444", 
    "country": "Greece", 
    "iso2": "GR", 
    "admin_name": "Notío Aigaío", 
    "capital": "", 
    "population": "1938", 
    "population_proper": "1938"
  }, 
  {
    "Title": "Loúros", 
    "lat": "39.1667", 
    "lng": "20.7500", 
    "country": "Greece", 
    "iso2": "GR", 
    "admin_name": "Ípeiros", 
    "capital": "", 
    "population": "1938", 
    "population_proper": "1938"
  }, 
  {
    "Title": "Néos Skopós", 
    "lat": "41.0239", 
    "lng": "23.6108", 
    "country": "Greece", 
    "iso2": "GR", 
    "admin_name": "Kentrikí Makedonía", 
    "capital": "", 
    "population": "1934", 
    "population_proper": "1934"
  }, 
  {
    "Title": "Afídnes", 
    "lat": "38.2000", 
    "lng": "23.8333", 
    "country": "Greece", 
    "iso2": "GR", 
    "admin_name": "Attikí", 
    "capital": "", 
    "population": "1908", 
    "population_proper": "1908"
  }, 
  {
    "Title": "Vrontoú", 
    "lat": "40.1936", 
    "lng": "22.4319", 
    "country": "Greece", 
    "iso2": "GR", 
    "admin_name": "Kentrikí Makedonía", 
    "capital": "", 
    "population": "1902", 
    "population_proper": "1902"
  }, 
  {
    "Title": "Gaïtáni", 
    "lat": "37.7833", 
    "lng": "20.8667", 
    "country": "Greece", 
    "iso2": "GR", 
    "admin_name": "Ionía Nísia", 
    "capital": "", 
    "population": "1899", 
    "population_proper": "1899"
  }, 
  {
    "Title": "Sámos", 
    "lat": "37.7475", 
    "lng": "26.9825", 
    "country": "Greece", 
    "iso2": "GR", 
    "admin_name": "Voreío Aigaío", 
    "capital": "minor", 
    "population": "1888", 
    "population_proper": "1888"
  }, 
  {
    "Title": "Kréstena", 
    "lat": "37.5917", 
    "lng": "21.6200", 
    "country": "Greece", 
    "iso2": "GR", 
    "admin_name": "Dytikí Elláda", 
    "capital": "minor", 
    "population": "1864", 
    "population_proper": "1864"
  }, 
  {
    "Title": "Megála Kalývia", 
    "lat": "39.5000", 
    "lng": "21.7833", 
    "country": "Greece", 
    "iso2": "GR", 
    "admin_name": "Thessalía", 
    "capital": "", 
    "population": "1849", 
    "population_proper": "1849"
  }, 
  {
    "Title": "Mavrommáti", 
    "lat": "38.3278", 
    "lng": "23.1408", 
    "country": "Greece", 
    "iso2": "GR", 
    "admin_name": "Stereá Elláda", 
    "capital": "", 
    "population": "1847", 
    "population_proper": "1847"
  }, 
  {
    "Title": "Káto Tithoréa", 
    "lat": "38.6000", 
    "lng": "22.7167", 
    "country": "Greece", 
    "iso2": "GR", 
    "admin_name": "Stereá Elláda", 
    "capital": "minor", 
    "population": "1841", 
    "population_proper": "1841"
  }, 
  {
    "Title": "Athíkia", 
    "lat": "37.8167", 
    "lng": "22.9333", 
    "country": "Greece", 
    "iso2": "GR", 
    "admin_name": "Peloponnísos", 
    "capital": "", 
    "population": "1834", 
    "population_proper": "1834"
  }, 
  {
    "Title": "Kolchikó", 
    "lat": "40.7581", 
    "lng": "23.1347", 
    "country": "Greece", 
    "iso2": "GR", 
    "admin_name": "Kentrikí Makedonía", 
    "capital": "", 
    "population": "1831", 
    "population_proper": "1831"
  }, 
  {
    "Title": "Kálamos", 
    "lat": "38.2847", 
    "lng": "23.8637", 
    "country": "Greece", 
    "iso2": "GR", 
    "admin_name": "Attikí", 
    "capital": "", 
    "population": "1824", 
    "population_proper": "1824"
  }, 
  {
    "Title": "Desfína", 
    "lat": "38.4184", 
    "lng": "22.5287", 
    "country": "Greece", 
    "iso2": "GR", 
    "admin_name": "Stereá Elláda", 
    "capital": "", 
    "population": "1824", 
    "population_proper": "1824"
  }, 
  {
    "Title": "Pórto Chéli", 
    "lat": "37.3250", 
    "lng": "23.1420", 
    "country": "Greece", 
    "iso2": "GR", 
    "admin_name": "Peloponnísos", 
    "capital": "", 
    "population": "1817", 
    "population_proper": "1817"
  }, 
  {
    "Title": "Verdikoússa", 
    "lat": "39.7808", 
    "lng": "21.9764", 
    "country": "Greece", 
    "iso2": "GR", 
    "admin_name": "Thessalía", 
    "capital": "", 
    "population": "1812", 
    "population_proper": "1812"
  }, 
  {
    "Title": "Platýkampos", 
    "lat": "39.6217", 
    "lng": "22.5350", 
    "country": "Greece", 
    "iso2": "GR", 
    "admin_name": "Thessalía", 
    "capital": "", 
    "population": "1804", 
    "population_proper": "1804"
  }, 
  {
    "Title": "Galatiní", 
    "lat": "40.3197", 
    "lng": "21.5519", 
    "country": "Greece", 
    "iso2": "GR", 
    "admin_name": "Dytikí Makedonía", 
    "capital": "", 
    "population": "1795", 
    "population_proper": "1795"
  }, 
  {
    "Title": "Mantoúdi", 
    "lat": "38.7981", 
    "lng": "23.4797", 
    "country": "Greece", 
    "iso2": "GR", 
    "admin_name": "Stereá Elláda", 
    "capital": "", 
    "population": "1787", 
    "population_proper": "1787"
  }, 
  {
    "Title": "Prómachoi", 
    "lat": "41.0236", 
    "lng": "22.0081", 
    "country": "Greece", 
    "iso2": "GR", 
    "admin_name": "Kentrikí Makedonía", 
    "capital": "", 
    "population": "1740", 
    "population_proper": "1740"
  }, 
  {
    "Title": "Evropós", 
    "lat": "40.8975", 
    "lng": "22.5525", 
    "country": "Greece", 
    "iso2": "GR", 
    "admin_name": "Kentrikí Makedonía", 
    "capital": "", 
    "population": "1734", 
    "population_proper": "1734"
  }, 
  {
    "Title": "Makrísia", 
    "lat": "37.6167", 
    "lng": "21.6000", 
    "country": "Greece", 
    "iso2": "GR", 
    "admin_name": "Dytikí Elláda", 
    "capital": "", 
    "population": "1718", 
    "population_proper": "1718"
  }, 
  {
    "Title": "Thérmo", 
    "lat": "38.5736", 
    "lng": "21.6664", 
    "country": "Greece", 
    "iso2": "GR", 
    "admin_name": "Dytikí Elláda", 
    "capital": "minor", 
    "population": "1716", 
    "population_proper": "1716"
  }, 
  {
    "Title": "Petroússa", 
    "lat": "41.1944", 
    "lng": "24.0158", 
    "country": "Greece", 
    "iso2": "GR", 
    "admin_name": "Anatolikí Makedonía kai Thráki", 
    "capital": "", 
    "population": "1704", 
    "population_proper": "1704"
  }, 
  {
    "Title": "Chiliomódi", 
    "lat": "37.8139", 
    "lng": "22.8711", 
    "country": "Greece", 
    "iso2": "GR", 
    "admin_name": "Peloponnísos", 
    "capital": "", 
    "population": "1699", 
    "population_proper": "1699"
  }, 
  {
    "Title": "Néa Sánta", 
    "lat": "40.8428", 
    "lng": "22.9194", 
    "country": "Greece", 
    "iso2": "GR", 
    "admin_name": "Kentrikí Makedonía", 
    "capital": "", 
    "population": "1693", 
    "population_proper": "1693"
  }, 
  {
    "Title": "Katoúna", 
    "lat": "38.7853", 
    "lng": "21.1167", 
    "country": "Greece", 
    "iso2": "GR", 
    "admin_name": "Dytikí Elláda", 
    "capital": "", 
    "population": "1677", 
    "population_proper": "1677"
  }, 
  {
    "Title": "Kalávryta", 
    "lat": "38.0308", 
    "lng": "22.1086", 
    "country": "Greece", 
    "iso2": "GR", 
    "admin_name": "Dytikí Elláda", 
    "capital": "minor", 
    "population": "1674", 
    "population_proper": "1674"
  }, 
  {
    "Title": "Argyropoúli", 
    "lat": "39.8261", 
    "lng": "22.3081", 
    "country": "Greece", 
    "iso2": "GR", 
    "admin_name": "Thessalía", 
    "capital": "", 
    "population": "1667", 
    "population_proper": "1667"
  }, 
  {
    "Title": "Kontariótissa", 
    "lat": "40.2272", 
    "lng": "22.4594", 
    "country": "Greece", 
    "iso2": "GR", 
    "admin_name": "Kentrikí Makedonía", 
    "capital": "", 
    "population": "1662", 
    "population_proper": "1662"
  }, 
  {
    "Title": "Kontokáli", 
    "lat": "39.6460", 
    "lng": "19.8500", 
    "country": "Greece", 
    "iso2": "GR", 
    "admin_name": "Ionía Nísia", 
    "capital": "", 
    "population": "1660", 
    "population_proper": "1660"
  }, 
  {
    "Title": "Skýros", 
    "lat": "38.9064", 
    "lng": "24.5658", 
    "country": "Greece", 
    "iso2": "GR", 
    "admin_name": "Stereá Elláda", 
    "capital": "minor", 
    "population": "1657", 
    "population_proper": "1657"
  }, 
  {
    "Title": "Evinochóri", 
    "lat": "38.3594", 
    "lng": "21.5361", 
    "country": "Greece", 
    "iso2": "GR", 
    "admin_name": "Dytikí Elláda", 
    "capital": "", 
    "population": "1651", 
    "population_proper": "1651"
  }, 
  {
    "Title": "Kardámaina", 
    "lat": "36.7818", 
    "lng": "27.1419", 
    "country": "Greece", 
    "iso2": "GR", 
    "admin_name": "Notío Aigaío", 
    "capital": "", 
    "population": "1650", 
    "population_proper": "1650"
  }, 
  {
    "Title": "Límni", 
    "lat": "38.7700", 
    "lng": "23.3200", 
    "country": "Greece", 
    "iso2": "GR", 
    "admin_name": "Stereá Elláda", 
    "capital": "minor", 
    "population": "1642", 
    "population_proper": "1642"
  }, 
  {
    "Title": "Palaiá Epídavros", 
    "lat": "37.6379", 
    "lng": "23.1570", 
    "country": "Greece", 
    "iso2": "GR", 
    "admin_name": "Peloponnísos", 
    "capital": "", 
    "population": "1618", 
    "population_proper": "1618"
  }, 
  {
    "Title": "Perigiáli", 
    "lat": "37.9380", 
    "lng": "22.8360", 
    "country": "Greece", 
    "iso2": "GR", 
    "admin_name": "Peloponnísos", 
    "capital": "", 
    "population": "1616", 
    "population_proper": "1616"
  }, 
  {
    "Title": "Makrychóri", 
    "lat": "39.8000", 
    "lng": "22.4833", 
    "country": "Greece", 
    "iso2": "GR", 
    "admin_name": "Thessalía", 
    "capital": "minor", 
    "population": "1615", 
    "population_proper": "1615"
  }, 
  {
    "Title": "Ampelókipoi", 
    "lat": "37.7581", 
    "lng": "20.8725", 
    "country": "Greece", 
    "iso2": "GR", 
    "admin_name": "Ionía Nísia", 
    "capital": "", 
    "population": "1606", 
    "population_proper": "1606"
  }, 
  {
    "Title": "Néa Flogitá", 
    "lat": "40.2600", 
    "lng": "23.2200", 
    "country": "Greece", 
    "iso2": "GR", 
    "admin_name": "Kentrikí Makedonía", 
    "capital": "", 
    "population": "1604", 
    "population_proper": "1604"
  }, 
  {
    "Title": "Dístomo", 
    "lat": "38.4293", 
    "lng": "22.6673", 
    "country": "Greece", 
    "iso2": "GR", 
    "admin_name": "Stereá Elláda", 
    "capital": "minor", 
    "population": "1589", 
    "population_proper": "1589"
  }, 
  {
    "Title": "Vári", 
    "lat": "37.3906", 
    "lng": "24.9447", 
    "country": "Greece", 
    "iso2": "GR", 
    "admin_name": "Notío Aigaío", 
    "capital": "", 
    "population": "1584", 
    "population_proper": "1584"
  }, 
  {
    "Title": "Thymianá", 
    "lat": "38.3144", 
    "lng": "26.1325", 
    "country": "Greece", 
    "iso2": "GR", 
    "admin_name": "Voreío Aigaío", 
    "capital": "", 
    "population": "1566", 
    "population_proper": "1566"
  }, 
  {
    "Title": "Néa Éfesos", 
    "lat": "40.2297", 
    "lng": "22.5003", 
    "country": "Greece", 
    "iso2": "GR", 
    "admin_name": "Kentrikí Makedonía", 
    "capital": "", 
    "population": "1564", 
    "population_proper": "1564"
  }, 
  {
    "Title": "Néa Iraklítsa", 
    "lat": "40.8644", 
    "lng": "24.3167", 
    "country": "Greece", 
    "iso2": "GR", 
    "admin_name": "Anatolikí Makedonía kai Thráki", 
    "capital": "", 
    "population": "1560", 
    "population_proper": "1560"
  }, 
  {
    "Title": "Néa Poteídaia", 
    "lat": "40.1931", 
    "lng": "23.3279", 
    "country": "Greece", 
    "iso2": "GR", 
    "admin_name": "Kentrikí Makedonía", 
    "capital": "", 
    "population": "1559", 
    "population_proper": "1559"
  }, 
  {
    "Title": "Kompóti", 
    "lat": "39.1022", 
    "lng": "21.0837", 
    "country": "Greece", 
    "iso2": "GR", 
    "admin_name": "Ípeiros", 
    "capital": "", 
    "population": "1544", 
    "population_proper": "1544"
  }, 
  {
    "Title": "Domokós", 
    "lat": "39.1000", 
    "lng": "22.3333", 
    "country": "Greece", 
    "iso2": "GR", 
    "admin_name": "Stereá Elláda", 
    "capital": "minor", 
    "population": "1531", 
    "population_proper": "1531"
  }, 
  {
    "Title": "Gra Lygiá", 
    "lat": "35.0150", 
    "lng": "25.6922", 
    "country": "Greece", 
    "iso2": "GR", 
    "admin_name": "Kríti", 
    "capital": "", 
    "population": "1528", 
    "population_proper": "1528"
  }, 
  {
    "Title": "Lófos", 
    "lat": "40.2417", 
    "lng": "22.3833", 
    "country": "Greece", 
    "iso2": "GR", 
    "admin_name": "Kentrikí Makedonía", 
    "capital": "", 
    "population": "1496", 
    "population_proper": "1496"
  }, 
  {
    "Title": "Zygós", 
    "lat": "41.0167", 
    "lng": "24.3833", 
    "country": "Greece", 
    "iso2": "GR", 
    "admin_name": "Anatolikí Makedonía kai Thráki", 
    "capital": "", 
    "population": "1485", 
    "population_proper": "1485"
  }, 
  {
    "Title": "Filóti", 
    "lat": "37.0519", 
    "lng": "25.4983", 
    "country": "Greece", 
    "iso2": "GR", 
    "admin_name": "Notío Aigaío", 
    "capital": "", 
    "population": "1477", 
    "population_proper": "1477"
  }, 
  {
    "Title": "Pérdika", 
    "lat": "39.3667", 
    "lng": "20.3000", 
    "country": "Greece", 
    "iso2": "GR", 
    "admin_name": "Ípeiros", 
    "capital": "", 
    "population": "1476", 
    "population_proper": "1476"
  }, 
  {
    "Title": "Geniséa", 
    "lat": "41.0614", 
    "lng": "24.9624", 
    "country": "Greece", 
    "iso2": "GR", 
    "admin_name": "Anatolikí Makedonía kai Thráki", 
    "capital": "minor", 
    "population": "1473", 
    "population_proper": "1473"
  }, 
  {
    "Title": "Kokkinóchoma", 
    "lat": "40.9261", 
    "lng": "24.2983", 
    "country": "Greece", 
    "iso2": "GR", 
    "admin_name": "Anatolikí Makedonía kai Thráki", 
    "capital": "", 
    "population": "1472", 
    "population_proper": "1472"
  }, 
  {
    "Title": "Epitálio", 
    "lat": "37.6267", 
    "lng": "21.4933", 
    "country": "Greece", 
    "iso2": "GR", 
    "admin_name": "Dytikí Elláda", 
    "capital": "", 
    "population": "1469", 
    "population_proper": "1469"
  }, 
  {
    "Title": "Pyrgetós", 
    "lat": "39.9181", 
    "lng": "22.5956", 
    "country": "Greece", 
    "iso2": "GR", 
    "admin_name": "Thessalía", 
    "capital": "", 
    "population": "1463", 
    "population_proper": "1463"
  }, 
  {
    "Title": "Aigeíra", 
    "lat": "38.1456", 
    "lng": "22.3506", 
    "country": "Greece", 
    "iso2": "GR", 
    "admin_name": "Dytikí Elláda", 
    "capital": "", 
    "population": "1462", 
    "population_proper": "1462"
  }, 
  {
    "Title": "Toló", 
    "lat": "37.5205", 
    "lng": "22.8600", 
    "country": "Greece", 
    "iso2": "GR", 
    "admin_name": "Peloponnísos", 
    "capital": "", 
    "population": "1460", 
    "population_proper": "1460"
  }, 
  {
    "Title": "Antíkyra", 
    "lat": "38.3833", 
    "lng": "22.6333", 
    "country": "Greece", 
    "iso2": "GR", 
    "admin_name": "Stereá Elláda", 
    "capital": "", 
    "population": "1448", 
    "population_proper": "1448"
  }, 
  {
    "Title": "Kinéta", 
    "lat": "37.9717", 
    "lng": "23.2150", 
    "country": "Greece", 
    "iso2": "GR", 
    "admin_name": "Attikí", 
    "capital": "", 
    "population": "1446", 
    "population_proper": "1446"
  }, 
  {
    "Title": "Kastélli", 
    "lat": "35.2089", 
    "lng": "25.3378", 
    "country": "Greece", 
    "iso2": "GR", 
    "admin_name": "Kríti", 
    "capital": "minor", 
    "population": "1438", 
    "population_proper": "1438"
  }, 
  {
    "Title": "Keramotí", 
    "lat": "40.8556", 
    "lng": "24.6983", 
    "country": "Greece", 
    "iso2": "GR", 
    "admin_name": "Anatolikí Makedonía kai Thráki", 
    "capital": "", 
    "population": "1438", 
    "population_proper": "1438"
  }, 
  {
    "Title": "Grammatikó", 
    "lat": "38.2025", 
    "lng": "23.9650", 
    "country": "Greece", 
    "iso2": "GR", 
    "admin_name": "Attikí", 
    "capital": "", 
    "population": "1432", 
    "population_proper": "1432"
  }, 
  {
    "Title": "Skála Oropoú", 
    "lat": "38.3197", 
    "lng": "23.7875", 
    "country": "Greece", 
    "iso2": "GR", 
    "admin_name": "Attikí", 
    "capital": "", 
    "population": "1430", 
    "population_proper": "1430"
  }, 
  {
    "Title": "Profítis Ilías", 
    "lat": "35.2064", 
    "lng": "25.1000", 
    "country": "Greece", 
    "iso2": "GR", 
    "admin_name": "Kríti", 
    "capital": "", 
    "population": "1429", 
    "population_proper": "1429"
  }, 
  {
    "Title": "Kouvarás", 
    "lat": "37.8333", 
    "lng": "23.9667", 
    "country": "Greece", 
    "iso2": "GR", 
    "admin_name": "Attikí", 
    "capital": "", 
    "population": "1426", 
    "population_proper": "1426"
  }, 
  {
    "Title": "Magoúla", 
    "lat": "37.0667", 
    "lng": "22.4000", 
    "country": "Greece", 
    "iso2": "GR", 
    "admin_name": "Peloponnísos", 
    "capital": "", 
    "population": "1415", 
    "population_proper": "1415"
  }, 
  {
    "Title": "Koróni", 
    "lat": "36.7961", 
    "lng": "21.9581", 
    "country": "Greece", 
    "iso2": "GR", 
    "admin_name": "Peloponnísos", 
    "capital": "", 
    "population": "1409", 
    "population_proper": "1409"
  }, 
  {
    "Title": "Míthymna", 
    "lat": "39.3686", 
    "lng": "26.1806", 
    "country": "Greece", 
    "iso2": "GR", 
    "admin_name": "Voreío Aigaío", 
    "capital": "", 
    "population": "1399", 
    "population_proper": "1399"
  }, 
  {
    "Title": "Atsipópoulo", 
    "lat": "35.3527", 
    "lng": "24.4340", 
    "country": "Greece", 
    "iso2": "GR", 
    "admin_name": "Kríti", 
    "capital": "", 
    "population": "1392", 
    "population_proper": "1392"
  }, 
  {
    "Title": "Kírra", 
    "lat": "38.4334", 
    "lng": "22.4400", 
    "country": "Greece", 
    "iso2": "GR", 
    "admin_name": "Stereá Elláda", 
    "capital": "", 
    "population": "1385", 
    "population_proper": "1385"
  }, 
  {
    "Title": "Polydéndri", 
    "lat": "38.2167", 
    "lng": "23.8667", 
    "country": "Greece", 
    "iso2": "GR", 
    "admin_name": "Attikí", 
    "capital": "", 
    "population": "1385", 
    "population_proper": "1385"
  }, 
  {
    "Title": "Potamiá", 
    "lat": "40.7164", 
    "lng": "24.7283", 
    "country": "Greece", 
    "iso2": "GR", 
    "admin_name": "Anatolikí Makedonía kai Thráki", 
    "capital": "", 
    "population": "1383", 
    "population_proper": "1383"
  }, 
  {
    "Title": "Lárdos", 
    "lat": "36.0941", 
    "lng": "28.0166", 
    "country": "Greece", 
    "iso2": "GR", 
    "admin_name": "Notío Aigaío", 
    "capital": "", 
    "population": "1380", 
    "population_proper": "1380"
  }, 
  {
    "Title": "Damási", 
    "lat": "39.7125", 
    "lng": "22.1875", 
    "country": "Greece", 
    "iso2": "GR", 
    "admin_name": "Thessalía", 
    "capital": "", 
    "population": "1380", 
    "population_proper": "1380"
  }, 
  {
    "Title": "Perivóli", 
    "lat": "39.4208", 
    "lng": "20.0139", 
    "country": "Greece", 
    "iso2": "GR", 
    "admin_name": "Ionía Nísia", 
    "capital": "", 
    "population": "1378", 
    "population_proper": "1378"
  }, 
  {
    "Title": "Katastári", 
    "lat": "37.8278", 
    "lng": "20.7567", 
    "country": "Greece", 
    "iso2": "GR", 
    "admin_name": "Ionía Nísia", 
    "capital": "", 
    "population": "1378", 
    "population_proper": "1378"
  }, 
  {
    "Title": "Kalí", 
    "lat": "40.8177", 
    "lng": "22.1782", 
    "country": "Greece", 
    "iso2": "GR", 
    "admin_name": "Kentrikí Makedonía", 
    "capital": "", 
    "population": "1378", 
    "population_proper": "1378"
  }, 
  {
    "Title": "Thesprotikó", 
    "lat": "39.2497", 
    "lng": "20.7811", 
    "country": "Greece", 
    "iso2": "GR", 
    "admin_name": "Ípeiros", 
    "capital": "", 
    "population": "1363", 
    "population_proper": "1363"
  }, 
  {
    "Title": "Kamári", 
    "lat": "36.3741", 
    "lng": "25.4820", 
    "country": "Greece", 
    "iso2": "GR", 
    "admin_name": "Notío Aigaío", 
    "capital": "", 
    "population": "1344", 
    "population_proper": "1344"
  }, 
  {
    "Title": "Kýria", 
    "lat": "41.0985", 
    "lng": "24.2892", 
    "country": "Greece", 
    "iso2": "GR", 
    "admin_name": "Anatolikí Makedonía kai Thráki", 
    "capital": "", 
    "population": "1330", 
    "population_proper": "1330"
  }, 
  {
    "Title": "Varnávas", 
    "lat": "38.2236", 
    "lng": "23.9236", 
    "country": "Greece", 
    "iso2": "GR", 
    "admin_name": "Attikí", 
    "capital": "", 
    "population": "1326", 
    "population_proper": "1326"
  }, 
  {
    "Title": "Argalastí", 
    "lat": "39.2257", 
    "lng": "23.2197", 
    "country": "Greece", 
    "iso2": "GR", 
    "admin_name": "Thessalía", 
    "capital": "minor", 
    "population": "1321", 
    "population_proper": "1321"
  }, 
  {
    "Title": "Mýki", 
    "lat": "41.2447", 
    "lng": "24.9192", 
    "country": "Greece", 
    "iso2": "GR", 
    "admin_name": "Anatolikí Makedonía kai Thráki", 
    "capital": "", 
    "population": "1313", 
    "population_proper": "1313"
  }, 
  {
    "Title": "Meligalás", 
    "lat": "37.2167", 
    "lng": "21.9667", 
    "country": "Greece", 
    "iso2": "GR", 
    "admin_name": "Peloponnísos", 
    "capital": "minor", 
    "population": "1296", 
    "population_proper": "1296"
  }, 
  {
    "Title": "Kritsá", 
    "lat": "35.1567", 
    "lng": "25.6444", 
    "country": "Greece", 
    "iso2": "GR", 
    "admin_name": "Kríti", 
    "capital": "", 
    "population": "1296", 
    "population_proper": "1296"
  }, 
  {
    "Title": "Grizáno", 
    "lat": "39.6319", 
    "lng": "22.0525", 
    "country": "Greece", 
    "iso2": "GR", 
    "admin_name": "Thessalía", 
    "capital": "", 
    "population": "1290", 
    "population_proper": "1290"
  }, 
  {
    "Title": "Mavrochóri", 
    "lat": "40.5114", 
    "lng": "21.3208", 
    "country": "Greece", 
    "iso2": "GR", 
    "admin_name": "Dytikí Makedonía", 
    "capital": "", 
    "population": "1287", 
    "population_proper": "1287"
  }, 
  {
    "Title": "Kallífytos", 
    "lat": "41.1728", 
    "lng": "24.2153", 
    "country": "Greece", 
    "iso2": "GR", 
    "admin_name": "Anatolikí Makedonía kai Thráki", 
    "capital": "", 
    "population": "1282", 
    "population_proper": "1282"
  }, 
  {
    "Title": "Palaiokómi", 
    "lat": "40.8714", 
    "lng": "23.9017", 
    "country": "Greece", 
    "iso2": "GR", 
    "admin_name": "Kentrikí Makedonía", 
    "capital": "", 
    "population": "1274", 
    "population_proper": "1274"
  }, 
  {
    "Title": "Rízia", 
    "lat": "41.6219", 
    "lng": "26.4222", 
    "country": "Greece", 
    "iso2": "GR", 
    "admin_name": "Anatolikí Makedonía kai Thráki", 
    "capital": "", 
    "population": "1272", 
    "population_proper": "1272"
  }, 
  {
    "Title": "Vília", 
    "lat": "38.1667", 
    "lng": "23.3333", 
    "country": "Greece", 
    "iso2": "GR", 
    "admin_name": "Attikí", 
    "capital": "", 
    "population": "1269", 
    "population_proper": "1269"
  }, 
  {
    "Title": "Skarmagkás", 
    "lat": "38.0100", 
    "lng": "23.6000", 
    "country": "Greece", 
    "iso2": "GR", 
    "admin_name": "Attikí", 
    "capital": "", 
    "population": "1255", 
    "population_proper": "1255"
  }, 
  {
    "Title": "Kavásila", 
    "lat": "37.8750", 
    "lng": "21.2667", 
    "country": "Greece", 
    "iso2": "GR", 
    "admin_name": "Dytikí Elláda", 
    "capital": "", 
    "population": "1252", 
    "population_proper": "1252"
  }, 
  {
    "Title": "Aidipsós", 
    "lat": "38.8500", 
    "lng": "23.0333", 
    "country": "Greece", 
    "iso2": "GR", 
    "admin_name": "Stereá Elláda", 
    "capital": "", 
    "population": "1249", 
    "population_proper": "1249"
  }, 
  {
    "Title": "Zárkos", 
    "lat": "39.6078", 
    "lng": "22.1247", 
    "country": "Greece", 
    "iso2": "GR", 
    "admin_name": "Thessalía", 
    "capital": "", 
    "population": "1247", 
    "population_proper": "1247"
  }, 
  {
    "Title": "Gérgeri", 
    "lat": "35.1329", 
    "lng": "24.9499", 
    "country": "Greece", 
    "iso2": "GR", 
    "admin_name": "Kríti", 
    "capital": "", 
    "population": "1241", 
    "population_proper": "1241"
  }, 
  {
    "Title": "Karterádos", 
    "lat": "36.4133", 
    "lng": "25.4458", 
    "country": "Greece", 
    "iso2": "GR", 
    "admin_name": "Notío Aigaío", 
    "capital": "", 
    "population": "1238", 
    "population_proper": "1238"
  }, 
  {
    "Title": "Stalída", 
    "lat": "35.2914", 
    "lng": "25.4284", 
    "country": "Greece", 
    "iso2": "GR", 
    "admin_name": "Kríti", 
    "capital": "", 
    "population": "1237", 
    "population_proper": "1237"
  }, 
  {
    "Title": "Livaderó", 
    "lat": "40.0333", 
    "lng": "21.9425", 
    "country": "Greece", 
    "iso2": "GR", 
    "admin_name": "Dytikí Makedonía", 
    "capital": "", 
    "population": "1232", 
    "population_proper": "1232"
  }, 
  {
    "Title": "Dávleia", 
    "lat": "38.5167", 
    "lng": "22.7333", 
    "country": "Greece", 
    "iso2": "GR", 
    "admin_name": "Stereá Elláda", 
    "capital": "", 
    "population": "1232", 
    "population_proper": "1232"
  }, 
  {
    "Title": "Angelókastro", 
    "lat": "38.5667", 
    "lng": "21.3000", 
    "country": "Greece", 
    "iso2": "GR", 
    "admin_name": "Dytikí Elláda", 
    "capital": "", 
    "population": "1220", 
    "population_proper": "1220"
  }, 
  {
    "Title": "Fyteíes", 
    "lat": "38.6953", 
    "lng": "21.1858", 
    "country": "Greece", 
    "iso2": "GR", 
    "admin_name": "Dytikí Elláda", 
    "capital": "", 
    "population": "1210", 
    "population_proper": "1210"
  }, 
  {
    "Title": "Savália", 
    "lat": "37.8167", 
    "lng": "21.2833", 
    "country": "Greece", 
    "iso2": "GR", 
    "admin_name": "Dytikí Elláda", 
    "capital": "", 
    "population": "1206", 
    "population_proper": "1206"
  }, 
  {
    "Title": "Dafnés", 
    "lat": "35.2161", 
    "lng": "25.0503", 
    "country": "Greece", 
    "iso2": "GR", 
    "admin_name": "Kríti", 
    "capital": "", 
    "population": "1204", 
    "population_proper": "1204"
  }, 
  {
    "Title": "Amaxádes", 
    "lat": "41.1167", 
    "lng": "25.0667", 
    "country": "Greece", 
    "iso2": "GR", 
    "admin_name": "Anatolikí Makedonía kai Thráki", 
    "capital": "", 
    "population": "1195", 
    "population_proper": "1195"
  }, 
  {
    "Title": "Angelochórion", 
    "lat": "40.4970", 
    "lng": "22.8340", 
    "country": "Greece", 
    "iso2": "GR", 
    "admin_name": "Kentrikí Makedonía", 
    "capital": "", 
    "population": "1178", 
    "population_proper": "1178"
  }, 
  {
    "Title": "Próti", 
    "lat": "40.9442", 
    "lng": "24.0017", 
    "country": "Greece", 
    "iso2": "GR", 
    "admin_name": "Kentrikí Makedonía", 
    "capital": "", 
    "population": "1176", 
    "population_proper": "1176"
  }, 
  {
    "Title": "Kítros", 
    "lat": "40.3722", 
    "lng": "22.5789", 
    "country": "Greece", 
    "iso2": "GR", 
    "admin_name": "Kentrikí Makedonía", 
    "capital": "", 
    "population": "1172", 
    "population_proper": "1172"
  }, 
  {
    "Title": "Kampánis", 
    "lat": "40.8928", 
    "lng": "22.9153", 
    "country": "Greece", 
    "iso2": "GR", 
    "admin_name": "Kentrikí Makedonía", 
    "capital": "", 
    "population": "1170", 
    "population_proper": "1170"
  }, 
  {
    "Title": "Sylivainiótika", 
    "lat": "38.1614", 
    "lng": "22.3317", 
    "country": "Greece", 
    "iso2": "GR", 
    "admin_name": "Dytikí Elláda", 
    "capital": "", 
    "population": "1165", 
    "population_proper": "1165"
  }, 
  {
    "Title": "Lefkopigí", 
    "lat": "40.2310", 
    "lng": "21.7490", 
    "country": "Greece", 
    "iso2": "GR", 
    "admin_name": "Dytikí Makedonía", 
    "capital": "", 
    "population": "1161", 
    "population_proper": "1161"
  }, 
  {
    "Title": "Agía Tríada", 
    "lat": "37.6377", 
    "lng": "22.8041", 
    "country": "Greece", 
    "iso2": "GR", 
    "admin_name": "Peloponnísos", 
    "capital": "", 
    "population": "1151", 
    "population_proper": "1151"
  }, 
  {
    "Title": "Arrianá", 
    "lat": "41.0813", 
    "lng": "25.6949", 
    "country": "Greece", 
    "iso2": "GR", 
    "admin_name": "Anatolikí Makedonía kai Thráki", 
    "capital": "", 
    "population": "1147", 
    "population_proper": "1147"
  }, 
  {
    "Title": "Loutró Elénis", 
    "lat": "37.8660", 
    "lng": "22.9970", 
    "country": "Greece", 
    "iso2": "GR", 
    "admin_name": "Peloponnísos", 
    "capital": "", 
    "population": "1145", 
    "population_proper": "1145"
  },